time,pitch,roll,yaw,ax,ay,az,gx,gy,gz,x,y,vx,vy
1732553747413,3.57556,-2.4455,0.000213623,-0.0428534,-0.062377,0.989677,0.113281,-0.0930176,0,0,0,0,0
1732553747413,3.59711,-2.44171,-0.000167847,-0.0427675,-0.0662546,0.989592,0.0565186,0.0935059,0,0,0,0,0
1732553747413,3.5985,-2.44285,-0.000167847,-0.0428534,-0.062377,0.989677,-0.0045166,0.0283203,0,0,0,0,0
1732553747413,3.6091,-2.4525,-0.000320435,-0.0428953,-0.0662565,0.993546,-0.178955,0.336426,0,0,0,0,0
1732553747413,3.60558,-2.44121,-0.000915527,-0.0429382,-0.0585003,0.989763,0.0534668,-0.0952148,0,0,0,0,0
1732553747413,3.57939,-2.46127,0.000152588,-0.0427675,-0.0662546,0.989592,-0.00195312,0.1521,0,0,0,0,0
1732553747413,3.58936,-2.47756,0.000213623,-0.0465927,-0.0584354,0.981705,-0.0643311,0.0262451,0,0,0,0,0
1732553747413,3.58922,-2.46595,-0.000183105,-0.0428534,-0.062377,0.989677,-0.0681152,0.0405273,0,0,0,0,0
1732553747413,3.5992,-2.45828,-0.00050354,-0.0388994,-0.0701933,0.99361,-0.0045166,0.0953369,0,0,0,0,0
1732553747413,3.61427,-2.46384,-0.000549316,-0.0428534,-0.062377,0.989677,-0.0107422,-0.214966,0,0,0,0,0
1732553747413,3.60248,-2.46937,-9.15527e-05,-0.0472336,-0.0584478,1.00147,-0.0675049,-0.0284424,0,0,0,0,0
1732553747413,3.61478,-2.46574,-0.000244141,-0.0429382,-0.0585003,0.989763,-0.06604,0.0324707,0,0,0,0,0
1732553747413,3.60913,-2.46389,4.57764e-05,-0.0468493,-0.0584402,0.989613,0.0548096,-0.101318,0,0,0,0,0
1732553747413,3.60335,-2.46616,9.15527e-05,-0.0431948,-0.0585051,0.997669,-0.060791,0.212891,0,0,0,0,0
1732553747413,3.60277,-2.46615,-0.000183105,-0.0431948,-0.0585051,0.997669,0.178345,0.0895996,0,0,0,0,0
1732553747413,3.58165,-2.46338,0.000274658,-0.0428953,-0.0662565,0.993546,0.0505371,-0.218994,0,0,0,0,0
1732553747413,3.57524,-2.45285,0.000198364,-0.039113,-0.0663185,0.997648,-0.00500488,0.0305176,0,0,0,0,0
1732553747413,3.55853,-2.45469,0.000640869,-0.0426817,-0.0701313,0.989506,0.178345,0.0227051,0,0,0,0,0
1732553747413,3.57303,-2.46512,0.000595093,-0.0427675,-0.0546179,0.981941,-0.00976562,-0.1521,0,0,0,0,0
1732553747413,3.58116,-2.46252,0.000152588,-0.0431519,-0.0546255,0.993801,0.0600586,0.213135,0,0,0,0,0
1732553747413,3.57741,-2.45412,-0.000183105,-0.0432806,-0.0546274,0.997755,0.000244141,0.21106,0,0,0,0,0
1732553747413,3.58043,-2.4538,-0.00050354,-0.0431948,-0.0585051,0.997669,-0.0701904,-0.152222,0,0,0,0,0
1732553747413,3.59154,-2.4547,-0.00062561,-0.0427246,-0.0623741,0.985723,-0.126343,0.0322266,0,0,0,0,0
1732553747413,3.59084,-2.45768,-0.000457764,-0.0429382,-0.0585003,0.989763,0.0548096,0.0327148,0,0,0,0,0
1732553747413,3.59416,-2.45817,-0.000350952,-0.0429811,-0.0623798,0.993631,0.0565186,0.0264893,0,0,0,0,0
1732553747413,3.58427,-2.45627,-0.000335693,-0.043067,-0.0585022,0.993717,0.0579834,0.0875244,0,0,0,0,0
1732553747413,3.5955,-2.4579,-0.000457764,-0.0388565,-0.0663137,0.989742,-0.186279,0.0300293,0,0,0,0,0
1732553747413,3.58455,-2.45609,-9.15527e-05,-0.0428534,-0.062377,0.989677,-0.0045166,0.0283203,0,0,0,0,0
1732553747413,3.58113,-2.44991,6.10352e-05,-0.039156,-0.0585613,0.993866,-0.00134277,0.150146,0,0,0,0,0
1732553747413,3.57675,0,0,0,0,0,0,0,0,0,0,0,0
1732553747425,-2.4519,0.000152588,-0.043067,-0.0585022,0.993717,0.059082,0.150146,0,0,0,0,0,3.57742
1732553747425,-2.45825,0.000228882,-0.0427675,-0.0662546,0.989592,-0.00341797,0.0913086,0,0,0,0,0,3.56732
1732553747425,-2.46601,0.000701904,-0.0429382,-0.0585003,0.989763,-0.00195312,0.1521,0,0,0,0,0,3.55763
1732553747425,-2.45985,0.000991821,-0.0429382,-0.0585003,0.989763,-0.188965,-0.0267334,0,0,0,0,0,3.55705
1732553747425,-2.46155,0.00111389,-0.0431089,-0.0623817,0.997585,0.11377,-0.0950928,0,0,0,0,0,3.5368
1732553747425,-2.47443,0.00189209,-0.0429811,-0.0623798,0.993631,-0.00610352,-0.0324707,0,0,0,0,0,3.53755
1732553747425,-2.48,0.00189209,-0.046977,-0.0584431,0.993567,-0.0644531,0.0932617,0,0,0,0,0,3.56313
1732553747425,-2.47418,0.00114441,-0.0427675,-0.0662546,0.989592,-0.125854,0.0300293,0,0,0,0,0,3.56819
1732553747425,-2.46128,0.000640869,-0.0427675,-0.0662546,0.989592,-0.0612793,0.215088,0,0,0,0,0,3.57249
1732553747425,-2.46152,0.000488281,-0.04702,-0.0506859,0.989784,-0.122192,0.150024,0,0,0,0,0,3.57886
1732553747425,-2.45879,0.000305176,-0.043067,-0.0585022,0.993717,-0.00769043,-0.0932617,0,0,0,0,0,3.58931
1732553747425,-2.45634,-6.10352e-05,-0.0390711,-0.062439,0.99378,-0.0633545,0.0891113,0,0,0,0,0,3.59082
1732553747425,-2.45975,-0.000244141,-0.0391989,-0.0624409,0.997734,-0.0697021,-0.0872803,0,0,0,0,0,3.59804
1732553747425,-2.44742,-0.000610352,-0.0349894,-0.0702524,0.993759,-0.00500488,-0.036499,0,0,0,0,0,3.59021
1732553747425,-2.43071,-0.00088501,-0.0389853,-0.0663157,0.993696,0.0447998,-0.397461,0,0,0,0,0,3.58055
1732553747425,-2.43422,-0.000823975,-0.0468063,-0.0545607,0.985744,-0.00610352,-0.0324707,0,0,0,0,0,3.59042
1732553747425,-2.43406,-0.00108337,-0.0433655,-0.0623865,1.00549,0.0605469,0.144287,0,0,0,0,0,3.59914
1732553747425,-2.44209,-0.00106812,-0.0428953,-0.0662565,0.993546,-0.00866699,-0.0892334,0,0,0,0,0,3.58719
1732553747425,-2.45093,-0.000671387,-0.0468922,-0.0623198,0.993481,-0.00500488,0.0305176,0,0,0,0,0,3.56317
1732553747425,-2.45394,6.10352e-05,-0.0428534,-0.062377,0.989677,-0.00402832,0.0935059,0,0,0,0,0,0
1732553747482,3.56454,-2.45637,0.000152588,-0.0428534,-0.062377,0.989677,-0.0045166,0.0283203,0,0,0,0,0
1732553747545,3.58011,-2.45709,-0.000213623,-0.0431519,-0.0662613,1.00145,0.0522461,-0.158081,0,0,0,0,0
1732553747545,3.59407,-2.45441,-0.000457764,-0.0428534,-0.062377,0.989677,-0.0612793,0.215088,0,0,0,0,0
1732553747610,3.57034,-2.44871,-0.000244141,-0.0429811,-0.0623798,0.993631,-0.0596924,0.208862,0,0,0,0,0
1732553747610,3.56184,-2.45714,0.000259399,-0.0429811,-0.0623798,0.993631,0.0522461,-0.158081,0,0,0,0,0
1732553747664,3.58521,-2.44329,-0.000534058,-0.0426388,-0.0662518,0.985638,0.0548096,-0.0343018,0,0,0,0,0
1732553747748,3.58777,-2.43858,-0.000717163,-0.0468493,-0.0584402,0.989613,-0.0113525,-0.213013,0,0,0,0,0
1732553747748,3.5923,-2.4428,-0.000534058,-0.0429382,-0.0585003,0.989763,-0.00708008,-0.0953369,0,0,0,0,0
1732553747806,3.59236,-2.43967,-0.00088501,-0.0389423,-0.0624361,0.989828,0.0552979,0.0307617,0,0,0,0,0
1732553747806,3.56384,-2.43418,-0.000579834,-0.0429811,-0.0623798,0.993631,0.111572,-0.220825,0,0,0,0,0
1732553747869,3.55598,-2.44647,1.52588e-05,-0.04702,-0.0623226,0.997435,-0.00817871,-0.0252686,0,0,0,0,0
1732553747930,3.53,-2.44507,0.000198364,-0.0429811,-0.0623798,0.993631,-0.00244141,0.15332,0,0,0,0,0
1732553747930,3.53146,-2.44414,0,-0.0431519,-0.0546255,0.993801,-0.00292969,0.155151,0,0,0,0,0
1732553747998,3.53574,-2.44376,1.52588e-05,-0.0392418,-0.0546846,0.993952,-0.0690918,-0.090332,0,0,0,0,0
1732553748073,3.53439,-2.45058,0.000366211,-0.046977,-0.0584431,0.993567,-0.0601807,0.276855,0,0,0,0,0
1732553748073,3.54781,-2.4611,0.00012207,-0.0431948,-0.0585051,0.997669,-0.0670166,0.0352783,0,0,0,0,0
1732553748137,3.54358,-2.4584,0.000106812,-0.0429811,-0.0623798,0.993631,-0.0681152,-0.0274658,0,0,0,0,0
1732553748137,3.56238,-2.4553,-0.000457764,-0.0429811,-0.0623798,0.993631,-0.00720215,-0.0294189,0,0,0,0,0
1732553748191,3.56862,-2.45918,-0.000305176,-0.043067,-0.0585022,0.993717,-0.00976562,-0.153076,0,0,0,0,0
1732553748254,3.59178,-2.45415,-0.000961304,-0.0425968,-0.0623722,0.98177,0.116333,-0.0393066,0,0,0,0,0
1732553748254,3.58315,-2.43916,-0.00115967,-0.0389853,-0.0663157,0.993696,-0.00561523,0.0314941,0,0,0,0,0
1732553748317,3.5816,-2.44567,-0.000717163,-0.0431519,-0.0546255,0.993801,0.0565186,0.0925293,0,0,0,0,0
1732553748384,3.59045,-2.44202,-0.000717163,-0.0427246,-0.0740108,0.993374,-0.0697021,-0.0883789,0,0,0,0,0
1732553748384,3.57251,-2.44183,-0.000350952,-0.0431948,-0.0585051,0.997669,0.0527344,-0.0941162,0,0,0,0,0
1732553748445,3.56479,-2.4503,-6.10352e-05,-0.0466356,-0.062315,0.985573,0.11377,-0.0960693,0,0,0,0,0
1732553748445,3.57161,-2.4488,-0.000427246,-0.0471907,-0.0545683,0.997606,-0.00402832,0.0925293,0,0,0,0,0
1732553748510,3.57329,-2.44629,-0.000640869,-0.0426388,-0.0662518,0.985638,-0.0670166,-0.0314941,0,0,0,0,0
1732553748570,3.5825,-2.44928,-0.000808716,-0.0429811,-0.0623798,0.993631,-0.0628662,0.153076,0,0,0,0,0
1732553748570,3.57986,-2.4376,-0.00112915,-0.0388994,-0.0585566,0.985958,-0.00610352,0.0335693,0,0,0,0,0
1732553748632,3.57249,-2.43826,-0.00109863,-0.0429811,-0.0623798,0.993631,-0.00183105,0.151123,0,0,0,0,0
1732553748690,3.55019,-2.43973,-0.000366211,-0.0469341,-0.0662003,0.997349,0.0490723,-0.213867,0,0,0,0,0
1732553748690,3.56357,-2.44214,-0.000823975,-0.0428953,-0.0662565,0.993546,-0.00561523,0.0314941,0,0,0,0,0
1732553748751,3.55865,-2.442,-0.000976562,-0.0428953,-0.0662565,0.993546,0.0505371,-0.152954,0,0,0,0,0
1732553748813,3.56676,-2.44704,-0.00112915,-0.0426817,-0.0584946,0.981855,-0.184204,0.154785,0,0,0,0,0
1732553748813,3.59772,-2.45978,-0.00160217,-0.0431519,-0.0546255,0.993801,-0.0606689,0.211914,0,0,0,0,0
1732553748874,3.586,-2.46286,-0.00100708,-0.0431089,-0.0623817,0.997585,-0.184204,0.154785,0,0,0,0,0
1732553748938,3.61954,-2.4653,-0.00160217,-0.0427675,-0.0662546,0.989592,-0.0727539,-0.210083,0,0,0,0,0
1732553748938,3.60007,-2.45224,-0.00161743,-0.0430241,-0.0662594,0.997499,-0.0124512,-0.209961,0,0,0,0,0
1732553749007,3.5946,-2.44741,-0.00138855,-0.0429811,-0.0623798,0.993631,0.0505371,-0.152954,0,0,0,0,0
1732553749065,3.59494,-2.45325,-0.00144958,-0.039156,-0.0585613,0.993866,0.119019,0.151367,0,0,0,0,0
1732553749065,3.58716,-2.4519,-0.0015564,-0.0428104,-0.0701342,0.99346,-0.00769043,-0.0273438,0,0,0,0,0
1732553749163,3.58858,-2.4463,-0.0015564,-0.0425968,-0.0740089,0.98942,-0.0665283,0.0333252,0,0,0,0,0
1732553749163,3.57957,-2.45815,-0.00117493,-0.0430241,-0.0662594,0.997499,-0.00720215,-0.0294189,0,0,0,0,0
1732553749224,3.58716,-2.46147,-0.00158691,-0.0389853,-0.0663157,0.993696,-0.0045166,0.0943604,0,0,0,0,0
1732553749224,3.56638,-2.45413,-0.00140381,-0.0391989,-0.0624409,0.997734,-0.0712891,-0.14917,0,0,0,0,0
1732553749283,3.57272,-2.44433,-0.00198364,-0.0429811,-0.0623798,0.993631,-0.0727539,-0.210083,0,0,0,0,0
1732553749349,3.59175,-2.43587,-0.00259399,-0.0427675,-0.0662546,0.989592,0.109375,-0.213745,0,0,0,0,0
1732553749349,3.59802,-2.4383,-0.00248718,-0.0390711,-0.062439,0.99378,-0.0654297,0.0963135,0,0,0,0,0
1732553749407,3.58636,-2.45194,-0.00210571,-0.0386429,-0.0701885,0.985703,-0.00561523,0.0314941,0,0,0,0,0
1732553749407,3.60295,-2.44254,-0.00265503,-0.042511,-0.0778856,0.989334,-0.126465,0.0982666,0,0,0,0,0
1732553749471,3.57867,-2.44018,-0.00210571,-0.0433235,-0.058507,1.00162,-0.0592041,0.272705,0,0,0,0,0
1732553749534,3.58,-2.4465,-0.00210571,-0.0429811,-0.0623798,0.993631,-0.06604,0.0982666,0,0,0,0,0
1732553749534,3.57635,-2.45519,-0.00212097,-0.0470629,-0.0662022,1.0013,0.124268,0.332153,0,0,0,0,0
1732553749596,3.57809,-2.45773,-0.00212097,-0.0428953,-0.0662565,0.993546,-0.0654297,0.0963135,0,0,0,0,0
1732553749658,3.55978,-2.46743,-0.00134277,-0.0507164,-0.0661383,0.993246,0.0505371,-0.219971,0,0,0,0,0
1732553749658,3.58076,-2.4681,-0.00180054,-0.0428104,-0.0701342,0.99346,-0.000854492,0.147095,0,0,0,0,0
1732553749722,3.55518,-2.47009,-0.0012207,-0.039156,-0.0585613,0.993866,-0.121704,0.280884,0,0,0,0,0
1732553749788,3.55467,-2.47448,-0.000930786,-0.0431519,-0.0662613,1.00145,-0.0654297,0.0292969,0,0,0,0,0
1732553749788,3.57101,-2.47813,-0.00164795,-0.0430241,-0.0662594,0.997499,0.240845,0.2146,0,0,0,0,0
1732553749845,3.56596,-2.46467,-0.0017395,-0.0431089,-0.0623817,0.997585,-0.186279,0.0958252,0,0,0,0,0
1732553749845,3.5842,-2.48328,-0.00161743,-0.0428534,-0.062377,0.989677,0.11853,0.0865479,0,0,0,0,0
1732553749920,3.56528,-2.47346,-0.00158691,-0.039156,-0.0585613,0.993866,0.110596,-0.217773,0,0,0,0,0
1732553749988,3.5648,-2.46349,-0.00183105,-0.0428953,-0.0662565,0.993546,-0.121704,0.213867,0,0,0,0,0
1732553749988,3.58607,-2.47847,-0.00202942,-0.0432806,-0.0546274,0.997755,-0.0113525,-0.213989,0,0,0,0,0
1732553750048,3.59843,-2.47295,-0.00256348,-0.0429811,-0.0623798,0.993631,0.059082,0.149292,0,0,0,0,0
1732553750048,3.58028,-2.46623,-0.00244141,-0.0428953,-0.0662565,0.993546,-0.0654297,0.0292969,0,0,0,0,0
1732553750109,3.56323,-2.44925,-0.00271606,-0.0428953,-0.0662565,0.993546,0.053833,-0.03125,0,0,0,0,0
1732553750173,3.54622,-2.45638,-0.00238037,-0.043067,-0.0585022,0.993717,-0.130127,-0.088501,0,0,0,0,0
1732553750173,3.56042,-2.463,-0.00238037,-0.0467205,-0.0700741,0.993309,0.119019,0.151367,0,0,0,0,0
1732553750237,3.56871,-2.46314,-0.00248718,-0.0428534,-0.062377,0.989677,-0.0108643,-0.149048,0,0,0,0,0
1732553750301,3.55351,-2.47245,-0.00210571,-0.0432377,-0.0623846,1.00154,0.180542,0.147583,0,0,0,0,0
1732553750301,3.57953,-2.46938,-0.00286865,-0.039113,-0.0546818,0.989998,0.119019,0.0843506,0,0,0,0,0
1732553750360,3.55782,-2.46078,-0.00297546,-0.0394125,-0.0702028,1.00942,0.053833,-0.03125,0,0,0,0,0
1732553750449,3.56532,-2.45305,-0.00314331,-0.0426388,-0.0662518,0.985638,-0.0665283,-0.0335693,0,0,0,0,0
1732553750449,3.56169,-2.45219,-0.00318909,-0.0426388,-0.0662518,0.985638,0.116821,0.0257568,0,0,0,0,0
1732553750449,3.57643,-2.44892,-0.00366211,-0.0426817,-0.0584946,0.981855,0.053833,-0.03125,0,0,0,0,0
1732553750501,3.56912,-2.44582,-0.00338745,-0.0429382,-0.0585003,0.989763,-0.190552,-0.0216064,0,0,0,0,0
1732553750561,3.57849,-2.44356,-0.00369263,-0.0386,-0.066309,0.981834,-0.00671387,0.0355225,0,0,0,0,0
1732553750626,3.53133,-2.43606,-0.00302124,-0.043622,-0.0507555,1.00575,-0.121704,0.213867,0,0,-0.00195312,-8.58307e-06,-0.108559
1732553750626,3.17998,-2.38178,0.0052948,-0.0777502,0.0930462,1.11857,3.0835,-1.06116,0.572021,0,-0.00488281,7.72476e-05,-0.0607667
1732553750691,1.3544,-2.38189,0.116821,-0.0360804,0.0343208,1.07925,0.48999,0.186646,0.340942,0,-0.00878906,0.000366211,-0.151314
1732553750691,0.659988,-2.4304,0.15773,-0.0168047,0.0962124,0.927021,-3.79895,2.44714,-1.23633,0,-0.015625,0.000482559,-0.203714
1732553750753,0.653107,-2.47356,0.0946655,-0.0328312,-0.0781021,1.05305,1.52185,0.704468,-1.53491,0,-0.0234375,0.000391006,-0.208461
1732553750810,0.711533,-2.63023,0.114075,-0.00515747,-0.0862684,1.04997,-1.6521,2.79688,-0.931519,0,-0.0322266,0.000366688,-0.214292
1732553750810,0.902161,-2.7081,0.0520935,0.0202293,-0.0516787,0.968613,-0.137817,1.00928,-3.64441,0,-0.0410156,8.63075e-05,-0.22561
1732553750880,1.13422,-2.66859,0.0534668,-0.166174,-0.0644588,1.05215,-1.80908,1.32996,-0.690063,0,-0.0498047,9.77516e-05,-0.238556
1732553750933,1.28873,-2.68449,-0.0535889,0.0160828,-0.0437336,0.849873,0.29248,-1.06104,-4.16577,0,-0.0585938,-0.000237942,-0.221056
1732553750933,1.6144,-2.65538,-0.0133057,-0.00120354,-0.0938187,0.812426,2.2373,3.82593,1.15942,0,-0.0673828,-0.000116825,-0.191303
1732553750997,1.81395,-2.6937,-0.0495911,-0.0773859,-0.0309343,1.06824,-1.20007,2.04749,-2.6759,0,-0.0751953,-0.000200272,-0.180773
1732553751061,1.98273,-2.69659,-0.00411987,-0.0522127,-0.0855598,1.05212,0.839966,1.74329,0.894775,0,-0.0820312,4.29153e-06,-0.177008
1732553751061,2.09818,-2.68143,0.0238342,-0.0195379,-0.140178,0.925457,4.14282,1.22375,-3.11707,0,-0.0888672,-4.05312e-05,-0.184627
1732553751122,2.15143,-2.57475,0.00175476,0.0544186,-0.172606,1.20073,3.32886,-0.940918,0.392456,0,-0.0957031,0.00013113,-0.182372
1732553751186,2.21988,-2.61085,0.0919495,-0.0485592,-0.0274429,1.02193,-2.01221,-0.924683,3.11584,0,-0.103516,0.000353813,-0.170811
1732553751186,2.34766,-2.51482,0.0942688,-0.0120173,-0.00454426,0.845722,-1.72351,1.63623,1.03088,0,-0.111328,0.000361919,-0.192053
1732553751247,2.42581,-2.48009,0.131348,-0.0319557,-0.0510674,1.12891,0.179565,0.0177002,0,0,-0.119141,0.000500202,-0.189792
1732553751247,2.52061,-2.47668,0.149704,0.0779476,0.0136204,0.715025,-2.45776,2.60449,-1.72717,0,-0.125977,0.000463009,-0.208821
1732553751306,2.51028,-2.40214,0.202255,-0.0508461,-0.0198622,1.20807,0.784424,3.16711,4.00806,0,-0.134766,0.000820637,-0.20908
1732553751373,2.6329,-2.44359,0.2659,0.00990677,-0.0514746,0.924671,-6.03088,-2.25635,1.07361,0,-0.142578,0.000723839,-0.213883
1732553751373,2.71367,-2.37371,0.229813,-0.0118246,-0.121037,1.03704,-1.99622,-0.78479,4.40308,0,-0.150391,0.00102901,-0.204691
1732553751436,2.84167,-2.43476,0.222107,0.0285816,-0.114247,1.35546,0.715454,-3.30371,-4.99976,0,-0.15918,0.000729561,-0.218303
1732553751493,2.79253,-2.31744,0.154083,0.0553608,-0.110262,0.889454,5.78088,0.0648193,-0.984009,0,-0.167969,0.000714779,-0.209791
1732553751493,2.74403,-2.40891,0.21022,-0.0937529,-0.131292,0.914869,1.23022,-0.843994,-2.39404,0,-0.175781,0.00048399,-0.217198
1732553751556,2.75546,-2.41727,0.16272,-0.0774069,0.0196228,0.915003,-4.26489,0.911987,5.04321,0,-0.18457,0.000710011,-0.218839
1732553751618,2.79529,-2.49217,0.199112,0.012001,-0.106004,1.13727,-6.06677,-3.25647,0,0,-0.194336,0.000448227,-0.244272
1732553751618,2.92957,-2.42747,0.0480804,0.0459785,-0.0130701,0.752764,0.752441,0.375732,1.75024,0,-0.203125,0.000592232,-0.247983
1732553751684,3.16922,-2.58536,0.0263672,0.0230083,-0.136959,0.939054,-2.53845,-1.07129,-6.70764,0,-0.211914,-0.000281811,-0.216806
1732553751744,3.24806,-2.45681,-0.0727234,-0.0724926,-0.0697632,1.06358,-0.98938,-1.24084,2.48462,0,-0.220703,-7.82013e-05,-0.22013
1732553751744,3.28571,-2.6071,-0.107666,0.103548,-0.0606585,0.939962,-0.557495,1.79749,-4.94849,0,-0.229492,-0.000641823,-0.205652
1732553751801,3.38301,-2.56158,-0.146179,-0.108797,-0.0534687,0.844814,-2.65906,0.609619,1.60242,0,-0.238281,-0.000678539,-0.211583
1732553751866,3.50839,-2.65174,-0.182648,-0.0557165,-0.135784,0.951868,1.74048,-0.0760498,-2.11987,0,-0.246094,-0.00101519,-0.211744
1732553751866,3.57089,-2.5862,-0.297241,-0.0120831,-0.0980358,1.27112,2.41785,-0.65686,0,0,-0.253906,-0.000758171,-0.194075
1732553751931,3.59822,-2.66737,-0.259781,0.0185833,-0.0438194,0.893513,0.106812,0.463989,-2.14514,0,-0.261719,-0.00118685,-0.202388
1732553751931,3.70396,-2.5747,-0.37326,-0.0235567,-0.12086,1.03659,-1.33374,-2.92505,-3.44312,0,-0.269531,-0.00118876,-0.20367
1732553752002,3.80344,-2.48589,-0.250275,-0.0895433,-0.0925589,0.880293,0.77771,0.414429,4.25293,0,-0.277344,-0.000966549,-0.18823
1732553752065,3.81729,-2.66676,-0.35144,-0.17797,-0.0292397,0.90999,-4.92078,-4.48901,-4.401,0,-0.285156,-0.00176334,-0.211019
1732553752065,3.94722,-2.59818,-0.425735,-0.0756111,-0.0501614,0.905556,-2.00964,-1.60242,5.16003,0,-0.291992,-0.00108624,-0.168756
1732553752132,3.95439,-2.62312,-0.385773,-0.0612946,-0.0426655,0.94191,-0.899048,-2.30115,-4.27283,0,-0.298828,-0.00122833,-0.166772
1732553752132,3.89745,-2.40632,-0.408844,0.022131,0.0102844,0.989899,-2.32288,-0.292358,0.889038,0,-0.304688,-0.00108624,-0.175219
1732553752191,3.81639,-2.46709,-0.269043,-0.0494347,-0.042841,0.938406,0.25415,-3.28101,3.97156,0,-0.3125,-0.000712395,-0.171903
1732553752256,3.77039,-2.46229,-0.225189,-0.0668926,-0.0618992,0.88583,-1.04919,-1.44397,3.14709,0,-0.319336,-0.000525951,-0.17382
1732553752256,3.71553,-2.42473,-0.147522,-0.0262928,0.00321007,1.03933,0.797729,-3.07886,2.87842,0,-0.327148,-0.000166893,-0.187422
1732553752319,3.65685,-2.30779,-0.0248413,-0.0111408,-0.0240555,0.952196,4.4126,0.917725,0.344482,0,-0.333984,-3.19481e-05,-0.191663
1732553752381,3.59605,-2.34505,0.015686,-0.108328,-0.092514,1.0973,0.981812,0.155396,0.82373,0,-0.341797,0.00024128,-0.181501
1732553752381,3.68945,-2.34737,0.118256,-0.0370598,-0.124194,0.731167,-1.73755,0.220093,3.28662,0,-0.349609,0.000482559,-0.210011
1732553752438,3.5701,-2.39002,0.106537,-0.1722,-0.0177612,0.965899,-2.80945,-2.92468,1.63049,0,-0.357422,0.00040102,-0.195784
1732553752500,3.62051,-2.3075,0.144287,0.033329,-0.0557098,0.92944,3.54883,-0.151367,2.13367,0,-0.366211,0.000646591,-0.217876
1732553752500,3.57985,-2.28249,0.100403,0.0493755,-0.0366783,1.02551,1.69592,-1.1106,-3.99512,0,-0.375,0.000434875,-0.200369
1732553752566,3.57253,-2.35728,0.194321,-0.0771093,-0.0116682,1.16766,0.139282,1.07642,-0.4104,0,-0.382812,0.000587463,-0.207482
1732553752566,3.50891,-2.29597,0.140656,0.0185623,-0.156437,1.08887,5.30786,0.759644,-1.255,0,-0.391602,0.000482082,-0.214451
1732553752624,3.47404,-2.41064,0.166977,-0.136023,-0.0221548,0.939487,-8.47681,-0.174438,1.30505,0,-0.400391,0.000505447,-0.216893
1732553752687,3.39847,-2.43168,0.114029,-0.0833263,-0.0462952,1.02015,1.34973,-1.90686,0,0,-0.40918,0.000359535,-0.225586
1732553752687,3.46346,-2.43938,0.124268,-0.179958,-0.0294113,1.09201,-5.46436,-3.9165,0.935059,0,-0.417969,0.000339508,-0.236239
1732553752749,3.39772,-2.3964,-0.0161133,-0.0754833,-0.0617952,0.909252,1.67896,0.796265,-4.45996,0,-0.426758,-0.000208378,-0.231239
1732553752817,3.33798,-2.31495,-0.0169678,-0.149122,-0.00648785,0.971008,-3.05334,-1.47485,4.13635,0,-0.435547,8.86917e-05,-0.224351
1732553752817,3.3313,-2.35151,-0.026886,-0.00415325,-0.0240564,0.857456,-1.74182,-2.51416,-2.56799,0,-0.444336,-0.000265598,-0.215316
1732553752886,3.41765,-2.3994,-0.00265503,-0.084651,-0.0385628,1.0559,-4.65601,0.35144,3.92346,0,-0.453125,5.29289e-05,-0.213222
1732553752955,3.50142,-2.41986,-0.03479,-0.0123806,-0.0318365,0.995516,0.774414,1.38879,-4.91528,0,-0.460938,-0.000403881,-0.207051
1732553752955,3.62474,-2.40928,-0.0636292,-0.125957,-0.0456362,1.00664,-4.30652,-1.70874,1.32922,0,-0.469727,-0.000227451,-0.209702
1732553753019,3.6367,-2.4169,-0.0779114,-0.150937,-0.118873,0.98024,0.0738525,1.02783,-0.717041,0,-0.477539,-0.000424385,-0.201065
1732553753019,3.69005,-2.43742,-0.0864868,-0.114589,-0.0495663,0.900101,-6.11523,-0.0172119,5.38184,0,-0.486328,-0.0002141,-0.199436
1732553753075,3.70628,-2.46132,-0.0440979,-0.0761671,-0.0307779,0.909937,-1.82886,-0.331787,1.61572,0,-0.494141,-0.00036335,-0.198464
1732553753143,3.73042,-2.43941,-0.181046,-0.0070591,-0.0900507,0.990429,-2.73767,1.14539,-1.60645,0,-0.501953,-0.000385761,-0.171857
1732553753143,3.71239,-2.45403,-0.0458374,-0.0506744,-0.0738945,0.997028,3.12708,2.62097,1.70996,0,-0.508789,-0.000253201,-0.174283
1732553753200,3.73682,-2.41589,-0.0961609,0.00484276,-0.0281649,0.944803,-3.21484,0.987793,0,0,-0.514648,-0.000281334,-0.179519
1732553753265,3.75612,-2.49923,-0.0303345,-0.162584,-0.00620937,0.903196,-2.23779,-2.82812,3.70483,0,-0.521484,-3.24249e-05,-0.175443
1732553753265,3.70631,-2.44092,0.0235748,0.00281334,-0.0435848,0.896866,0.809937,-2.05627,1.45959,0,-0.52832,1.19209e-05,-0.158346
1732553753327,3.66997,-2.41881,0.0108643,-0.091404,-0.0694542,1.04306,1.73303,0.859009,0.971313,0,-0.536133,0.000161171,-0.190673
1732553753392,3.60382,-2.42286,0.0929565,-0.0519152,0.0111485,1.22062,-2.07654,-0.0422363,0.471313,0,-0.542969,0.000333786,-0.175905
1732553753392,3.70787,-2.37806,0.117218,0.0573692,-0.0442848,0.784159,-2.59375,1.25903,0.349487,0,-0.549805,0.000448227,-0.186547
1732553753450,3.67,-2.45788,0.162903,-0.168482,-0.0525999,0.874193,-2.70654,-1.34814,1.82153,0,-0.557617,0.000633717,-0.196199
1732553753450,3.63377,-2.44231,0.186646,-0.0508862,-0.0697536,0.75959,-3.91931,1.10986,2.42664,0,-0.56543,0.000657082,-0.188612
1732553753515,3.67206,-2.45637,0.17688,0.069828,-0.164691,0.841263,2.39258,0.479248,0.766724,0,-0.574219,0.000882626,-0.197054
1732553753571,3.61987,-2.53522,0.24353,0.107649,0.0904255,0.95546,-4.4502,-1.42285,-1.64624,0,-0.581055,0.000777245,-0.210362
1732553753571,3.60753,-2.48314,0.193359,-0.0705051,-0.0582218,1.11538,-1.26062,1.44678,-1.05493,0,-0.589844,0.000787735,-0.202777
1732553753632,3.72269,-2.52577,0.246964,0.0868587,-0.114611,0.886616,-3.16199,3.0592,0,0,-0.597656,0.000686646,-0.204727
1732553753698,3.55203,-2.4278,0.159973,-0.118052,-0.00308704,0.976248,-1.29248,-2.67969,0,0,-0.606445,0.000671864,-0.207014
1732553753698,3.54849,-2.47191,0.19548,0.00723648,-0.148361,0.950058,0.684692,-2.04028,1.09534,0,-0.614258,0.000739574,-0.212417
1732553753757,3.60017,-2.43924,0.151535,-0.0924091,-0.0851221,1.20497,-3.91772,2.57275,-1.22986,0,-0.623047,0.000647545,-0.20218
1732553753838,3.43942,-2.51604,0.18631,-0.121,-0.0613241,1.10544,1.03381,0.0540771,0,0,-0.631836,0.000721931,-0.212749
1732553753838,3.4422,-2.44331,0.145004,-0.0302238,-0.0159922,0.931849,0.999512,-0.351562,-2.30957,0,-0.640625,0.000621796,-0.218555
1732553753901,3.46867,-2.55218,0.231506,-0.080142,-0.205399,1.14726,0.909058,0.0679932,0,0,-0.650391,0.00055027,-0.223434
1732553753901,3.61984,-2.51861,0.0366516,0.0700188,-0.0836325,1.14399,3.2196,-1.22485,-3.82825,0,-0.65918,0.000257492,-0.227478
1732553753958,3.8168,-2.53295,0.0483398,-0.0205641,-0.175106,0.98004,0.928223,0.691162,-6.10608,0,-0.667969,-0.000449657,-0.213557
1732553754025,3.93373,-2.42591,-0.252457,-0.0226793,-0.221558,0.955139,-1.2793,-2.10107,-6.27417,0,-0.675781,-0.00124311,-0.19895
1732553754025,4.10992,-2.56036,-0.593918,-0.0832844,0.120493,0.90917,-2.98901,0.700928,-13.7632,0,-0.683594,-0.00310707,-0.205678
1732553754082,4.19588,-2.71192,-1.19748,-0.0737524,-0.120077,1.01487,0.16687,-0.788696,-17.8168,0,-0.691406,-0.00532866,-0.192728
1732553754145,4.25757,-2.72486,-1.97878,-0.0194101,-0.163447,0.936804,5.21704,0.154053,-21.594,0,-0.699219,-0.00764751,-0.183105
1732553754145,4.24004,-2.69466,-2.8802,0.0664272,-0.0953369,1.26235,1.85376,-1.07446,-25.5277,-0.000976562,-0.706055,-0.0103712,-0.182199
1732553754206,4.4317,-2.64629,-3.74796,0.161264,-0.240254,1.32999,12.2025,2.69604,-31.2927,-0.000976562,-0.712891,-0.0113826,-0.151897
1732553754206,4.28999,-2.69166,-4.74196,0.209921,-0.34606,1.70949,6.46326,1.01489,-21.1381,-0.00195312,-0.719727,-0.0125976,-0.143028
1732553754268,4.38388,-2.75885,-5.75659,0.225672,-0.272198,1.29613,6.22803,9.47119,-42.3575,-0.00195312,-0.726562,-0.0148907,-0.13588
1732553754333,4.43352,-2.68615,-6.78925,-0.0229588,0.0847263,0.882975,-8.10364,-5.25989,-22.3458,-0.00292969,-0.732422,-0.028091,-0.220104
1732553754333,4.94109,-3.12195,-8.12839,0.0827351,-0.00568295,0.580172,-7.15198,1.90283,-49.8528,-0.00390625,-0.738281,-0.0226779,-0.140924
1732553754397,4.62424,-2.95589,-9.56201,0.0040741,-0.0514517,0.983828,-1.0437,-3.29272,-16.5764,-0.00488281,-0.744141,-0.00970268,-0.0563879
1732553754455,4.49568,-3.3511,-10.0478,-0.267719,-0.15574,0.864029,-4.41736,-0.930786,-18.3998,-0.00585938,-0.749023,-0.0220952,-0.116199
1732553754455,4.59787,-3.54898,-11.9062,0.407436,-0.139131,1.15578,8.25745,6.30969,-57.5176,-0.00683594,-0.755859,-0.024116,-0.10737
1732553754521,4.36369,-3.25026,-12.9623,0.0995083,-0.200237,1.03558,3.427,-0.761597,-8.8114,-0.0078125,-0.760742,-0.0267854,-0.11557
1732553754577,4.24104,-3.45091,-13.1282,-0.385592,-0.122943,0.856258,-2.28918,0.369751,-9.93994,-0.00976562,-0.766602,-0.0540795,-0.220026
1732553754577,4.0903,-3.61208,-14.5383,-0.0612955,-0.00802326,1.16043,-5.49561,0.181641,-38.1068,-0.0117188,-0.773438,-0.0510755,-0.187326
1732553754640,4.07339,-3.50687,-15.9081,-0.0250082,-0.136136,0.850122,2.92017,1.5166,-29.2642,-0.0136719,-0.780273,-0.0600948,-0.201145
1732553754700,4.27554,-3.43414,-17.1019,-0.245793,-0.0511312,0.602039,-12.4081,2.45337,-20.9374,-0.015625,-0.788086,-0.0694075,-0.212343
1732553754700,4.17265,-3.51763,-18.7232,-0.193633,-0.199802,1.143,4.03113,-2.56201,-36.1011,-0.0185547,-0.795898,-0.0900331,-0.254582
1732553754762,4.18173,-3.50124,-20.2823,0.27219,-0.21099,1.39038,14.2648,0.71936,-39.8739,-0.0214844,-0.804688,-0.0772681,-0.203975
1732553754827,3.93243,-3.33967,-20.9897,0.322048,-0.172458,0.914188,8.9552,0.776245,-8.90576,-0.0244141,-0.811523,-0.074122,-0.193375
1732553754828,3.85083,-3.5047,-21.2435,-0.137497,0.0710411,0.803011,0.950562,1.12817,-17.494,-0.0273438,-0.820312,-0.0965476,-0.242828
1732553754889,3.8766,-3.31364,-21.9077,-0.0346889,-0.00791931,0.702253,-6.18945,1.9043,-0.998901,-0.03125,-0.829102,-0.0866981,-0.214771
1732553754889,3.87158,-3.31926,-22.1773,-0.0564642,0.06991,0.719028,-6.2251,-2.04736,-6.90686,-0.0341797,-0.836914,-0.0869312,-0.211616
1732553754956,3.91606,-3.35952,-22.334,-0.145638,-0.0101671,0.745411,-7.47266,2.73059,2.88989,-0.0380859,-0.845703,-0.0795679,-0.192938
1732553755013,3.92453,-3.28949,-22.4996,0.0180492,-0.133175,1.08938,3.29346,0.260376,-6.38635,-0.0410156,-0.853516,-0.0780497,-0.187395
1732553755013,3.88979,-3.18394,-22.56,-0.0951223,-0.104434,1.18067,0.503784,0.401733,1.20422,-0.0449219,-0.861328,-0.0802159,-0.192791
1732553755073,3.86295,-3.17371,-22.6704,0.0274944,-0.0673227,0.996246,0.442749,-0.636841,-2.37915,-0.0478516,-0.869141,-0.0855851,-0.205
1732553755134,3.89478,-3.03635,-22.5666,-0.0159693,-0.0662804,0.646219,0.597534,2.11975,6.34216,-0.0517578,-0.876953,-0.0852065,-0.205659
1732553755134,3.73883,-3.06784,-22.4355,-0.00819206,0.0225468,0.830658,-0.00646973,0.475464,4.99316,-0.0546875,-0.884766,-0.0766921,-0.186738
1732553755196,3.78241,-2.95113,-22.1346,0.0454674,-0.106171,0.829784,-5.14343,-0.595825,12.7303,-0.0576172,-0.892578,-0.0786767,-0.197192
1732553755257,3.79584,-2.98187,-21.2278,-0.230774,-0.0442886,1.22034,3.55884,-1.4718,25.4384,-0.0605469,-0.899414,-0.067924,-0.178882
1732553755319,3.83432,-2.95146,-20.3628,-0.0710382,-0.158947,1.07742,-0.985107,0.704956,22.9445,-0.0625,-0.907227,-0.0615039,-0.17067
1732553755319,3.7728,-2.85258,-19.1151,-0.192117,-0.172756,1.1991,-1.42236,0.437256,35.1357,-0.0654297,-0.914062,-0.0487623,-0.145306
1732553755383,3.70895,-2.90899,-18.0644,-0.0300522,-0.0819283,0.969931,0.0640869,-2.58179,32.7959,-0.0673828,-0.920898,-0.0557208,-0.179306
1732553755383,3.66417,-2.84839,-16.4242,-0.228722,-0.195522,1.25654,1.17749,0.00671387,40.1609,-0.0693359,-0.927734,-0.0485711,-0.172639
1732553755449,3.53119,-3.06035,-15.1552,-0.093648,-0.104539,1.25594,-0.583008,1.02429,25.8226,-0.0712891,-0.93457,-0.0491872,-0.188375
1732553755449,3.49591,-2.97861,-13.9934,-0.0416136,-0.0662327,0.954008,-0.230591,-2.80981,34.4351,-0.0732422,-0.942383,-0.0472574,-0.199608
1732553755510,3.40465,-3.0538,-12.7037,-0.150681,-0.165414,1.00294,1.34607,-1.02673,28.8291,-0.0751953,-0.949219,-0.0393739,-0.182065
1732553755569,3.40575,-3.0243,-11.6787,0.0325165,0.0221176,0.661997,-5.58826,-2.30408,27.9081,-0.0761719,-0.957031,-0.036303,-0.186326
1732553755569,3.36072,-3.13823,-10.3365,-0.106062,-0.10772,0.796171,-5.34277,0.432739,33.4561,-0.078125,-0.963867,-0.0277853,-0.162061
1732553755631,3.31551,-3.32861,-9.14453,-0.0853767,-0.104249,0.880186,3.86768,-2.36389,28.1417,-0.0791016,-0.970703,-0.0243092,-0.160752
1732553755697,3.21964,-3.2911,-8.04604,-0.0399685,-0.0275469,0.998505,-0.147461,0.643677,27.6935,-0.0800781,-0.977539,-0.0216069,-0.163758
1732553755698,3.18251,-3.24799,-6.86295,-0.0789032,-0.034709,0.996834,3.08826,-1.81445,34.3938,-0.0810547,-0.985352,-0.0205364,-0.189826
1732553755755,3.05656,-3.32622,-5.51842,-0.143395,-0.045433,1.06139,0.052002,0.108276,30.7795,-0.0810547,-0.993164,-0.0159721,-0.182968
1732553755820,3.0101,-3.2912,-4.41928,-0.0976,-0.177911,1.06409,5.18127,-1.59631,29.5081,-0.0820312,-1.00098,-0.0142159,-0.209355
1732553755820,2.87959,-3.29706,-3.30441,-0.133522,-0.0338764,0.99078,-3.72754,1.22974,28.1115,-0.0830078,-1.00879,-0.00952768,-0.199739
1732553755882,2.84787,-3.41106,-2.04352,-0.148544,-0.0994339,0.893684,1.32275,-3.47571,32.8083,-0.0830078,-1.01758,-0.00495911,-0.199162
1732553755941,2.87022,-3.51145,-0.879532,-0.108286,-0.0537252,1.07048,-1.29028,-1.48706,28.645,-0.0830078,-1.02539,-0.00108719,-0.204402
1732553755941,2.86633,-3.43844,0.299652,-0.0535164,0.0231533,0.900173,2.33813,-4.03113,32.0444,-0.0830078,-1.03418,0.00334549,-0.204677
1732553756002,2.69206,-3.53709,1.58086,-0.20295,-0.183931,0.937147,1.97742,-0.794189,30.4208,-0.0830078,-1.04199,0.00833273,-0.220359
1732553756065,2.57545,-3.47183,2.82126,-0.138075,0.0825329,0.933889,-2.30408,0.971069,30.8958,-0.0820312,-1.05078,0.0122795,-0.2061
1732553756065,2.48599,-3.49115,4.00749,-0.0816603,0.139917,0.846338,-4.8064,-5.53406,28.9192,-0.0820312,-1.05957,0.0191355,-0.237476
1732553756129,2.28731,-3.58618,5.146,-0.143671,-0.145887,0.774048,-3.27405,-3.47729,24.3015,-0.0810547,-1.06836,0.0227523,-0.228021
1732553756129,2.3649,-3.45828,6.31593,0.0711517,-0.0327873,0.713699,-3.96411,-1.1665,28.8616,-0.0800781,-1.07617,0.0271921,-0.227437
1732553756187,2.42966,-3.25465,7.36072,-0.0189209,0.037859,1.15125,-0.918457,0.321167,30.796,-0.0791016,-1.08496,0.0299406,-0.214439
1732553756250,2.49675,-3.3826,8.50496,-0.05093,-0.178627,1.07379,-3.05298,-1.95728,24.245,-0.0771484,-1.09277,0.0320673,-0.202694
1732553756250,2.60963,-3.18097,9.63206,-0.184401,-0.281082,0.911886,0.956299,-3.19446,32.0304,-0.0761719,-1.10156,0.0354099,-0.196808
1732553756312,2.50212,-3.12937,10.7616,-0.0414419,-0.0972595,0.969139,-0.661255,-0.37793,27.7133,-0.0742188,-1.10938,0.0466623,-0.23232
1732553756375,2.41101,-3.23561,11.9487,-0.0814886,-0.0191088,0.945627,0.534546,-0.328369,25.0837,-0.0732422,-1.11719,0.0390368,-0.1777
1732553756375,2.44102,-3.02351,13.0055,-0.112195,0.03969,0.767643,-1.64478,-5.49695,34.0219,-0.0712891,-1.125,0.0480795,-0.19844
1732553756438,2.39699,-3.12433,14.167,-0.0714226,-0.135415,0.832506,1.40356,-2.79138,26.799,-0.0693359,-1.13281,0.0492649,-0.188181
1732553756499,2.44476,-3.09558,15.2445,-0.020051,-0.105278,0.91832,-1.36121,-1.84827,28.5685,-0.0673828,-1.13965,0.0532093,-0.189091
1732553756499,2.5972,-2.84973,16.2229,0.00238609,-0.128926,0.96615,-0.956909,2.64221,27.0558,-0.0654297,-1.14648,0.0562863,-0.186481
1732553756566,2.50603,-2.82603,17.5441,-0.189703,-0.0409651,1.15867,9.22327,3.0658,37.7972,-0.0625,-1.1543,0.0596642,-0.182344
1732553756630,2.31947,-2.91226,18.6666,-0.0352659,-0.24079,0.993799,6.56628,-0.067627,29.9313,-0.0605469,-1.16113,0.0646486,-0.184919
1732553756630,2.38232,-2.83495,19.8883,-0.141364,-0.0646553,0.890802,1.40503,-4.46533,31.3,-0.0576172,-1.16797,0.0659304,-0.176922
1732553756691,2.46085,-2.68516,20.9872,0.0487137,-0.0675879,0.945599,2.13721,0.528809,30.844,-0.0546875,-1.17578,0.0771527,-0.194219
1732553756691,2.31174,-2.687,22.3301,-0.221393,-0.0713959,1.06965,7.64746,-1.37793,31.6348,-0.0517578,-1.18262,0.0736876,-0.174521
1732553756748,2.3293,-2.68578,23.5765,-0.181195,-0.199834,1.00097,6.18225,-0.748657,36.1261,-0.0488281,-1.18945,0.0726709,-0.161623
1732553756812,2.32191,-2.78127,24.7205,-0.0381937,-0.0351372,0.828175,-1.23193,-2.98792,26.0165,-0.0458984,-1.19629,0.0809069,-0.172118
1732553756812,2.28966,-2.59802,25.827,-0.100143,-0.135159,0.99371,0.271118,-3.01172,36.3744,-0.0429688,-1.20312,0.0825272,-0.165532
1732553756871,2.12772,-2.73346,27.0659,-0.122112,-0.034194,1.12185,-4.09143,-0.340942,26.1541,-0.0390625,-1.20996,0.0751791,-0.144351
1732553756941,2.22493,-2.53888,28.1628,-0.0413141,-0.0507116,0.934582,4.13586,2.19629,37.5521,-0.0351562,-1.2168,0.101747,-0.18481
1732553756941,2.0932,-2.67138,29.4047,-0.160147,-0.250526,0.988741,3.02527,-1.97839,28.348,-0.03125,-1.22363,0.0998425,-0.173772
1732553757004,2.14359,-2.69457,30.4415,0.111519,-0.0179739,0.786858,-5.90796,-1.06348,29.4294,-0.0273438,-1.23145,0.119104,-0.198027
1732553757059,2.09839,-2.69629,31.6033,-0.016098,-0.00836754,0.853395,0.75293,-0.200317,28.3818,-0.0234375,-1.2373,0.102202,-0.162323
1732553757059,2.19887,-2.80247,32.7473,-0.0967455,-0.0421371,0.948467,3.19629,-4.11609,26.4225,-0.0195312,-1.24414,0.102202,-0.162323
1732553757122,2.0881,-2.58603,33.8456,0.0901489,-0.036973,0.734131,-2.39856,-1.63806,34.2584,-0.0146484,-1.25098,0.122371,-0.177376
1732553757183,2.09024,-2.67646,35.3943,-0.224298,-0.0905781,0.930542,-1.06348,1.55969,37.7448,-0.00976562,-1.25684,0.101804,-0.139822
1732553757183,2.11102,-2.97125,36.5348,-0.149698,-0.0412741,0.891014,-1.77063,-2.38,19.2151,-0.00585938,-1.2627,0.0768909,-0.102468
1732553757250,1.98024,-2.92923,37.173,0.100214,-0.118903,1.08101,-4.99573,2.21423,14.317,-0.000976562,-1.26855,0.127435,-0.165788
1732553757250,2.10297,-2.65696,38.3558,-0.104715,-0.0845547,0.860094,3.70691,0.0140381,43.071,0.00390625,-1.27539,0.140318,-0.173238
1732553757309,2.0563,-2.90779,39.4477,-0.135829,-0.208199,0.93523,3.83472,1.5376,20.8721,0.00976562,-1.28125,0.112021,-0.134604
1732553757371,2.04668,-2.74685,40.2868,0.0924129,0.017107,0.870056,-1.05969,1.50537,32.0084,0.0136719,-1.28711,0.138051,-0.159144
1732553757371,2.12048,-2.91225,41.516,-0.228507,-0.059494,0.919216,-0.588745,0.778687,25.8727,0.0195312,-1.29199,0.122006,-0.135483
1732553757429,2.03021,-2.81612,42.5227,-0.0297108,-0.0508919,0.938986,-0.50293,0.616333,28.8539,0.0224609,-1.29785,0.154915,-0.165464
1732553757496,1.98442,-2.68642,43.7184,0.020998,-0.214573,1.052,2.5835,-0.533081,29.3298,0.0283203,-1.30371,0.135146,-0.138035
1732553757496,1.83047,-2.80923,44.9521,0.0956192,-0.250734,1.18866,6.17102,-3.05664,28.4604,0.0341797,-1.30859,0.15729,-0.153569
1732553757559,1.85486,-3.03883,46.1974,-0.132432,-0.0104504,0.821133,-8.90369,-0.0408936,19.7971,0.0400391,-1.31445,0.152393,-0.144194
1732553757621,1.84,-2.77885,47.0944,0.1134,-0.103271,0.784977,-3.89026,-3.12598,29.0187,0.0458984,-1.31934,0.150353,-0.136232
1732553757621,1.5381,-2.786,48.3904,0.0660648,0.0172749,1.07885,-1.66785,-0.830444,25.7488,0.0517578,-1.3252,0.145853,-0.127167
1732553757677,1.57301,-2.6886,49.4392,-0.018899,-0.0822506,1.10891,-4.58655,-1.76636,29.1448,0.0576172,-1.33008,0.154814,-0.129287
1732553757739,1.45712,-2.68677,50.6752,0.100363,-0.0414572,1.14613,2.03796,-1.43469,25.7561,0.0625,-1.33496,0.161707,-0.129646
1732553757739,1.28494,-2.6102,51.9034,-0.0584736,-0.170878,1.18056,5.16797,2.40613,30.2336,0.0703125,-1.33984,0.14691,-0.112466
1732553757801,1.11618,-2.51633,53.0727,0.102224,-0.192295,0.82605,0.455322,0.916992,26.2373,0.0761719,-1.34473,0.153994,-0.113053
1732553757862,1.04498,-2.48388,54.258,0.10391,-0.0682755,0.813122,-4.5127,-1.72327,24.0829,0.0839844,-1.35059,0.154543,-0.10839
1732553757862,0.828934,-2.45395,55.531,-0.0218897,0.0188084,0.893381,-6.42651,-4.81714,23.5336,0.0917969,-1.35547,0.182825,-0.122498
1732553757925,0.689407,-2.25298,56.8352,-0.119802,-0.138611,0.878065,5.06494,-1.10608,35.0817,0.0996094,-1.35938,0.161084,-0.102455
1732553757925,0.767258,-2.39038,58.1562,-0.0726204,-0.0930376,1.08283,0.999634,-2.93042,29.5408,0.104492,-1.36426,0.168313,-0.102233
1732553757990,0.839462,-2.38915,59.2376,-0.0455017,-0.104827,0.857964,0.092041,-0.655884,24.3406,0.112305,-1.36816,0.171634,-0.0999198
1732553758047,0.925583,-2.40379,60.4787,-0.22543,-0.0361633,0.809025,0.0532227,-2.07251,30.3173,0.118164,-1.37207,0.165383,-0.0916824
1732553758047,0.972198,-2.29985,61.5132,0.130238,0.0397625,0.895792,-0.999878,0.199341,29.0222,0.125977,-1.37598,0.157148,-0.0829711
1732553758111,0.944229,-2.35826,62.8361,-0.14051,0.0478458,0.790485,-0.822144,-2.89807,30.2872,0.131836,-1.37891,0.164217,-0.0824752
1732553758168,0.937576,-2.27569,63.8022,-0.0847359,-0.441957,1.32377,7.83899,0.0529785,28.7686,0.139648,-1.38281,0.193676,-0.0926838
1732553758168,0.980042,-2.32069,65.0508,-0.136643,0.0669117,1.02068,-0.940063,-1.70728,27.5957,0.146484,-1.38574,0.161383,-0.073525
1732553758231,1.0912,-2.188,66.0491,-0.040844,-0.159308,0.991491,-0.266968,-1.8053,28.0745,0.152344,-1.38867,0.168512,-0.0728183
1732553758293,1.12434,-2.14737,67.2391,-0.0471039,-0.104724,0.786646,4.22815,-2.6228,28.2498,0.158203,-1.3916,0.150495,-0.0613117
1732553758293,1.10529,-2.09341,68.4176,-0.174487,-0.149816,1.24385,4.48633,0.159058,28.7366,0.167969,-1.39453,0.158111,-0.0606661
1732553758356,1.20532,-2.20621,69.65,-0.0836468,0.000377655,0.878691,-1.22412,-2.04297,30.6329,0.173828,-1.39648,0.159366,-0.0575128
1732553758424,1.14281,-2.33249,70.5499,-0.033494,-0.0278244,1.16106,0.516846,0.0314941,16.0718,0.179688,-1.39941,0.158991,-0.0551534
1732553758424,1.19092,-2.26556,71.2921,-0.0758467,-0.065814,1.04374,3.04053,-3.38367,21.0269,0.186523,-1.40137,0.18487,-0.0614038
1732553758480,1.19322,-2.39347,71.8686,-0.114376,0.0393829,1.07633,-1.41345,3.08875,10.3035,0.194336,-1.4043,0.189276,-0.0614891
1732553758582,1.10345,-2.38366,72.2261,-0.0266342,-0.039464,1.07792,0.147095,3.36975,13.2327,0.202148,-1.40625,0.188382,-0.059679
1732553758582,1.21146,-2.53107,72.5853,0.0600605,-0.0328636,0.934958,1.87964,-0.372559,6.71106,0.209961,-1.40918,0.180568,-0.0561738
1732553758582,1.31665,-2.49731,72.8257,-0.0265903,-0.0702267,0.85553,-1.24878,-0.667603,5.68384,0.217773,-1.41113,0.193983,-0.0594335
1732553758643,1.35487,-2.54662,73.0682,-0.0642862,-0.0698738,1.05202,1.82202,-1.75806,4.39331,0.224609,-1.41309,0.17544,-0.0531402
1732553758700,1.41556,-2.45551,73.2526,-0.0485792,-0.0350676,0.906948,-2.30481,1.41553,4.56335,0.232422,-1.41602,0.193218,-0.0578136
1732553758700,1.53633,-2.47646,73.4232,-0.102879,-0.0576353,1.02705,0.786987,5.26672,5.07666,0.240234,-1.41797,0.194506,-0.0577135
1732553758763,1.54251,-2.40452,73.5428,0.0817719,-0.00610065,0.97204,1.07056,-0.151001,4.4696,0.248047,-1.4209,0.200856,-0.0591526
1732553758826,1.55669,-2.50845,73.61,-0.0122108,-0.0864019,1.26742,4.21924,1.93738,2.89172,0.255859,-1.42285,0.210033,-0.0612779
1732553758826,1.79654,-2.63383,73.8378,-0.0710173,-0.0579653,0.889719,-0.120728,-2.43359,0.839722,0.264648,-1.4248,0.188992,-0.0549169
1732553758892,1.84898,-2.56268,73.8189,-0.155255,-0.0452576,1.06489,1.81152,1.52661,1.00012,0.272461,-1.42773,0.211115,-0.0612521
1732553758893,1.90936,-2.63286,73.8578,-0.0852289,-0.0154343,1.17913,-3.82239,-1.51086,0.419434,0.280273,-1.42969,0.209022,-0.0605865
1732553758955,2.07922,-2.56884,73.7961,-0.0482807,0.0386353,0.849268,-7.35852,-1.86377,1.52759,0.290039,-1.43262,0.207384,-0.0601134
1732553759011,2.14091,-2.687,73.7992,-0.123693,-0.0264664,1.16551,-4.35706,-0.477417,-0.812256,0.297852,-1.43457,0.203505,-0.0591874
1732553759011,2.18718,-2.58482,73.7002,0.0393963,-0.0985279,1.01183,2.02917,0.375,-4.96912,0.304688,-1.4375,0.209315,-0.0613613
1732553759090,2.23477,-2.49218,73.7696,-0.114867,-0.0341902,1.01921,0.259888,-1.59338,6.42517,0.3125,-1.43945,0.200811,-0.0581255
1732553759090,2.33971,-2.42572,73.8761,-0.11756,0.0123043,1.07163,-4.0426,-1.25793,2.20105,0.320312,-1.44141,0.197489,-0.0568404
1732553759152,2.38551,-2.40878,74.0617,-0.0306931,-0.151758,1.0356,-6.20691,0.00671387,8.43359,0.330078,-1.44434,0.214253,-0.0607595
1732553759220,2.64326,-2.28624,74.2334,-0.0162277,-0.0435457,1.12178,-3.95374,-1.76514,6.38696,0.337891,-1.44629,0.202145,-0.0566988
1732553759220,2.79022,-2.40222,74.4458,0.0141602,-0.13686,0.970383,5.76404,-1.0332,6.40967,0.345703,-1.44824,0.182283,-0.0503092
1732553759330,2.99686,-2.36031,74.6204,0.0857449,0.00534439,1.0833,-4.87366,-0.647217,2.96619,0.352539,-1.4502,0.178497,-0.0488253
1732553759391,3.10384,-2.29926,74.7997,-0.0578966,-0.124189,1.01143,8.75073,2.05115,4.38879,0.360352,-1.45215,0.17999,-0.048614
1732553759391,3.13911,-2.29963,74.9868,-0.0368271,-0.0043478,1.00708,2.56348,0.491089,5.76831,0.368164,-1.4541,0.159711,-0.0427065
1732553759391,3.19623,-2.28295,75.0366,0.0213833,-0.121475,0.978933,-0.234863,-1.92468,0,0.375977,-1.45605,0.184396,-0.0488644
1732553759450,3.13098,-2.29681,75.384,-0.186325,-0.10684,1.09791,3.45325,-4.2926,9.39368,0.381836,-1.45801,0.185889,-0.0481873
1732553759450,3.11588,-2.18623,75.5122,-0.043623,0.0656071,0.929241,-2.2312,-0.209106,3.82019,0.388672,-1.45996,0.19582,-0.0500216
1732553759509,3.0905,-2.31886,75.8287,-0.173761,0.0674095,1.07863,-0.758545,1.48364,6.56824,0.396484,-1.46191,0.187173,-0.0469155
1732553759571,3.11725,-2.30801,76.0367,-0.0667009,-0.0620289,1.00064,0.818726,4.64014,3.70667,0.402344,-1.46387,0.173631,-0.0430832
1732553759571,3.20309,-2.35383,76.1451,-0.108479,0.015955,1.15124,-3.24207,-0.0716553,6.15173,0.412109,-1.46582,0.195019,-0.0478668
1732553759631,3.1373,-2.389,76.3046,-0.0570421,0.104675,0.834606,-0.218262,-3.18884,5.32129,0.419922,-1.46777,0.195995,-0.0474858
1732553759696,3.17288,-2.47363,76.449,-0.142988,-0.0142622,0.907728,-5.54395,-2.8031,2.38794,0.427734,-1.46973,0.188156,-0.0451655
1732553759696,3.15364,-2.52235,76.6114,-0.108754,-0.0728617,0.856247,2.29858,-0.0894775,5.13452,0.432617,-1.4707,0.190066,-0.0450935
1732553759758,3.13109,-2.38461,76.6944,0.0253811,-0.229872,0.806377,2.75732,-0.463623,3.10156,0.44043,-1.47266,0.199893,-0.0470901
1732553759819,3.1041,-2.35121,76.8121,-0.213743,-0.0291176,1.28865,2.60522,0.160645,4.6554,0.450195,-1.47461,0.184133,-0.0429187
1732553759819,3.09651,-2.41306,76.9112,-0.0158625,-0.213805,0.860573,4.52832,0.603394,0.512817,0.458008,-1.47656,0.176777,-0.040946
1732553759885,3.1759,-2.22908,76.9393,0.150558,-0.0419731,0.926374,1.01562,1.69727,0,0.46582,-1.47852,0.203666,-0.0469985
1732553759941,3.14346,-2.3224,77.0062,-0.138074,-0.103647,1.0563,3.10657,-1.72229,-1.59241,0.472656,-1.48047,0.195711,-0.0450206
1732553759941,3.33397,-2.26643,77.044,-0.0107994,-0.109382,0.997759,-6.18518,-0.0209961,-1.8158,0.476562,-1.48145,0.137144,-0.0316815
1732553760002,3.58383,-2.29089,77.0891,-0.183289,-0.273304,0.87252,-7.10962,-0.849243,5.65747,0.480469,-1.48242,0.148422,-0.0341997
1732553760066,4.67586,-2.5533,76.939,0.021492,-0.524733,1.12013,-12.7723,-2.00195,3.45178,0.482422,-1.48242,0.0867195,-0.0199609
1732553760066,4.26292,-2.51953,76.9766,0.0470428,-0.592587,2.54866,34.0962,5.14099,-0.539185,0.484375,-1.4834,0.0392299,-0.00899124
1732553760127,4.24744,-2.44338,77.0538,0.170303,-0.123854,1.09549,7.70667,1.40601,-0.938965,0.484375,-1.4834,0,0
1732553760127,4.11928,-2.79699,77.0989,0.0220661,0.010416,0.871138,-3.33911,-0.775269,-1.9917,0.484375,-1.4834,0,0
1732553760190,3.42606,-2.902,77.1115,-0.0951004,-0.0150881,1.00061,-0.81543,-0.278687,-0.951172,0.484375,-1.48242,-0.0672698,0.01546
1732553760252,3.73563,-2.6175,77.0676,-0.139632,-0.344028,1.14178,1.71997,0.508057,0.529053,0.482422,-1.48242,-0.0158944,0.00368881
1732553760252,4.10185,-2.69987,76.8009,0.101196,-0.192847,1.34063,8.83582,1.07788,-3.15759,0.480469,-1.48242,-0.054008,0.0126514
1732553760318,4.72946,-2.40131,76.7001,0.0531807,-0.226666,1.03318,3.05151,0.500977,-0.517944,0.478516,-1.48145,-0.114059,0.0269814
1732553760376,5.01405,-2.46806,76.6101,-0.00573444,-0.0977831,0.954674,2.33008,-0.220703,-3.8385,0.474609,-1.48047,-0.153729,0.0368624
1732553760376,5.14836,-2.38917,76.5594,-0.175405,-0.0873728,0.869169,-4.1897,-2.16101,1.97937,0.470703,-1.47949,-0.14822,0.0356874
1732553760439,5.33841,-2.30836,76.4247,-0.0602684,-0.112464,0.956184,0.352661,-0.819824,1.39551,0.463867,-1.47754,-0.159297,0.038456
1732553760506,5.50514,-2.32189,76.3781,-0.0829191,-0.0965786,0.920044,-2.77393,-2.02954,-3.33215,0.458008,-1.47656,-0.184144,0.0449233
1732553760506,5.43808,-2.31651,76.3105,0.0210629,-0.13325,1.11721,1.39502,0.326904,-1.06262,0.450195,-1.47461,-0.202374,0.0493188
1732553760562,5.42346,-2.36276,76.2447,-0.0230865,-0.0549116,0.978737,3.93579,0.785156,-4.41589,0.44043,-1.47266,-0.200828,0.0493999
1732553760625,5.29715,-2.34042,76.1541,0.0566196,-0.0250378,0.915209,0.553589,-3.17639,-3.16296,0.432617,-1.4707,-0.208012,0.0511789
1732553760625,5.25011,-2.4222,76.2463,-0.0204363,-0.0587406,0.899578,-1.65027,2.45593,0,0.425781,-1.46875,-0.221835,0.0544195
1732553760688,5.07393,-2.32503,76.2674,0.0503387,-0.117981,0.928671,5.21472,2.76538,2.73828,0.416016,-1.46582,-0.202139,0.0490689
1732553760688,4.97607,-2.35944,76.5041,-0.074564,0.0741119,0.670919,-9.01013,0.359253,7.79871,0.408203,-1.46484,-0.197884,0.0472603
1732553760754,4.91745,-2.3726,76.7996,0.0966873,0.0327034,0.728064,1.16064,-4.40198,18.5557,0.400391,-1.46289,-0.189369,0.0426412
1732553760814,4.6472,-2.28137,77.5548,0.114124,0.136959,0.845932,-5.99158,-4.40735,10.7384,0.392578,-1.46094,-0.167296,0.0355206
1732553760814,4.53688,-2.12255,78.5603,-0.0521908,-0.0776691,0.925625,0.168335,-2.55859,24.6222,0.385742,-1.45996,-0.172457,0.0333176
1732553760876,4.34911,-2.03326,79.5974,0.0259552,0.165375,0.890675,-11.8928,-7.42834,26.5081,0.379883,-1.45801,-0.158003,0.0271969
1732553760936,4.22025,-2.19637,80.7523,-0.0677481,0.0699635,0.82548,0.876709,-2.69482,22.537,0.37207,-1.45703,-0.167602,0.0254722
1732553760936,4.06885,-2.16421,82.0218,0.0132427,-0.0162363,0.557446,-7.8125,-5.03345,25.8519,0.364258,-1.45605,-0.151746,0.0196819
1732553761000,3.88901,-2.15984,83.3135,-0.048151,-0.135641,0.718599,8.39636,3.75415,32.5265,0.358398,-1.45508,-0.186584,0.0198679
1732553761062,3.76155,-2.19968,84.4904,0.139572,0.147879,1.14011,-5.64697,1.10767,31.7803,0.350586,-1.45508,-0.189641,0.0159464
1732553761062,3.68123,-2.19637,85.929,-0.125103,0.0319557,0.929274,0.491089,-1.42078,36.016,0.345703,-1.4541,-0.173773,0.0101829
1732553761132,3.71249,-2.0699,87.3273,-0.0323591,1.52588e-05,0.504589,-7.00684,-6.31006,30.4868,0.337891,-1.4541,-0.181178,0.00628376
1732553761132,3.52301,-2.10564,88.7806,-0.207951,-0.0676622,1.01484,0.0880127,-3.13794,36.6752,0.330078,-1.4541,-0.210035,0.00208139
1732553761188,3.59238,-2.09909,90.091,-0.140852,-0.0532761,1.10881,-1.49756,-2.68494,35.5477,0.320312,-1.4541,-0.231371,-0.00305939
1732553761252,3.42758,-2.26817,91.3652,-0.03407,-0.19061,1.16522,3.24207,-1.17676,29.7236,0.3125,-1.4541,-0.21267,-0.00733042
1732553761252,3.32056,-1.98903,92.7607,-0.138756,-0.200363,0.899668,5.58472,-4.42017,40.7267,0.303711,-1.4541,-0.222707,-0.0137434
1732553761313,3.21074,-2.00694,94.1528,-0.0133009,-0.00483513,1.12674,-1.17688,2.42639,30.0978,0.295898,-1.45508,-0.216007,-0.0178494
1732553761381,3.12837,-1.8831,95.3752,-0.0871925,-0.0420904,0.774654,0.52356,-2.25037,35.2471,0.288086,-1.45605,-0.197891,-0.0210443
1732553761381,3.11688,-1.84428,96.7902,-0.235989,-0.110327,1.42448,1.66467,-2.75696,34.7285,0.27832,-1.45703,-0.221824,-0.028924
1732553761437,3.02679,-1.94572,98.0518,-0.141344,-0.185297,1.33142,8.74353,-4.75891,27.6959,0.268555,-1.45801,-0.219038,-0.0332685
1732553761504,2.92326,-1.90569,99.1137,0.186609,-0.0344667,0.654791,1.18188,1.51318,24.1232,0.261719,-1.45898,-0.204611,-0.0350041
1732553761504,2.89554,-1.81348,100.253,-0.0927505,0.0702896,0.872025,-10.1692,-1.85791,26.1311,0.253906,-1.46094,-0.1944,-0.0371265
1732553761562,2.82954,-1.81377,101.47,-0.100316,-0.0345812,1.17415,1.12317,-3.60791,31.4619,0.246094,-1.46289,-0.210591,-0.0446405
1732553761628,2.7397,-1.84665,102.493,-0.0984125,-0.0654421,1.01517,6.56775,-1.31506,27.0706,0.236328,-1.46387,-0.188098,-0.0435534
1732553761628,2.73122,-1.86703,103.552,0.10545,0.0132084,0.712122,-1.7334,1.76624,24.7657,0.228516,-1.46582,-0.195668,-0.0491366
1732553761683,2.67117,-1.87117,104.672,-0.170149,-0.0060854,0.894989,3.07483,-0.535522,23.4092,0.223633,-1.46777,-0.161632,-0.0436416
1732553761683,2.61005,-2.00739,105.619,-0.0706768,0.0658951,1.03905,-8.50427,-4.59863,22.5823,0.21582,-1.4707,-0.184518,-0.0530601
1732553761745,2.56931,-1.87804,106.614,-0.0236626,-0.124607,0.921696,6.96155,-1.43213,30.2344,0.208008,-1.47266,-0.17378,-0.0536265
1732553761815,2.57993,-1.82603,107.6,-0.0363359,-0.10532,1.17896,-0.61853,-0.444702,26.0022,0.200195,-1.47461,-0.140038,-0.0458837
1732553761815,2.20312,-1.94908,108.534,0.160923,-0.0150261,0.951147,-4.36035,0.829468,20.5345,0.194336,-1.47656,-0.157325,-0.0544939
1732553761871,2.4715,-1.78583,109.712,0.21114,0.0269928,0.823416,-1.74036,0.857056,26.4337,0.188477,-1.47852,-0.118959,-0.0438676
1732553761933,2.57639,-1.67999,110.907,-0.199766,-0.0404892,0.865341,-2.94739,-1.85999,28.5795,0.183594,-1.48047,-0.16772,-0.0658121
1732553761933,2.68018,-1.7583,111.802,0.0239677,-0.0556202,0.976583,-10.1561,-6.80688,15.2988,0.175781,-1.4834,-0.188885,-0.076869
1732553761996,2.73354,-1.79666,112.518,-0.0137043,-0.105291,0.843349,0.368774,-0.333984,14.3488,0.169922,-1.48633,-0.181998,-0.0765018
1732553762058,2.79233,-1.87742,113.029,0.0793362,0.0639381,0.759779,-7.19141,-0.395264,8.6062,0.160156,-1.49023,-0.193734,-0.0831208
1732553762058,2.91678,-1.88691,113.499,-0.17111,-0.0408802,0.826855,-2.96753,-6.48413,13.4918,0.152344,-1.49316,-0.203719,-0.0895534
1732553762121,3.02057,-1.98412,113.814,0.0634594,-0.0443029,0.717096,-3.80334,-2.45044,4.83081,0.146484,-1.49609,-0.193185,-0.0860834
1732553762186,3.0587,-2.09785,114.185,-0.165214,-0.0645742,1.14324,-2.50928,2.2771,6.3717,0.137695,-1.5,-0.208908,-0.0944991
1732553762186,3.19191,-2.09002,114.429,-0.0603123,-0.221337,1.27039,2.68982,1.60547,3.31519,0.129883,-1.50391,-0.212846,-0.0971808
1732553762246,3.29224,-1.92995,114.695,-0.0155649,-0.0356417,0.975512,3.95557,2.39319,5.96375,0.12207,-1.50684,-0.212846,-0.0971808
1732553762246,3.40366,-1.91343,114.901,-0.0470848,0.0306339,1.05894,0.188354,-2.25842,0.78418,0.112305,-1.51172,-0.219658,-0.102349
1732553762308,3.36926,-1.9316,115.073,0.00629616,-0.0708036,0.928047,0.732666,0.317139,0,0.104492,-1.51465,-0.209375,-0.0980949
1732553762373,3.44455,-2.02367,115.219,-0.0865307,-0.115908,0.92342,-2.65173,-0.486084,5.21399,0.0976562,-1.51855,-0.208486,-0.0987091
1732553762373,3.31421,-2.05927,115.493,-0.0808706,-0.0272551,1.29383,-3.15808,-3.47192,11.1251,0.0898438,-1.52246,-0.205055,-0.0987868
1732553762436,3.34976,-1.96893,115.926,-0.0256939,-0.0821123,1.07698,-0.449341,-0.946411,13.3517,0.0820312,-1.52637,-0.187422,-0.092536
1732553762496,3.27058,-1.87572,116.669,-0.224834,-0.16883,1.60171,-0.114746,5.79529,17.6115,0.0742188,-1.53027,-0.181916,-0.091949
1732553762496,3.30911,-1.56655,117.19,0.00229836,-0.0438614,1.15416,4.55591,-1.1167,26.6666,0.0664062,-1.5332,-0.175555,-0.0920215
1732553762555,3.17831,-1.83972,117.953,-0.224749,-0.102623,1.31425,4.56934,7.35217,12.217,0.0605469,-1.53711,-0.179116,-0.0957298
1732553762617,3.36615,-1.74095,118.491,-0.0834322,-0.108225,0.94351,1.71045,3.1073,17.8456,0.0537109,-1.54102,-0.179116,-0.0957298
1732553762617,3.31909,-1.868,118.899,-0.0568924,-0.0738792,1.06804,0.221191,-0.366577,11.7865,0.0478516,-1.54492,-0.173186,-0.0960979
1732553762683,3.38847,-1.86922,119.212,-0.0499678,-0.0388393,0.831593,-2.76929,-2.56824,11.101,0.0419922,-1.54785,-0.173186,-0.0960979
1732553762738,3.32162,-1.95193,119.557,-0.150447,0.0710621,0.960859,2.45764,-0.539429,3.83252,0.0341797,-1.55176,-0.160107,-0.0912213
1732553762738,3.49834,-2.0605,119.789,-0.0997791,-0.0613222,0.813313,-2.10828,-1.52527,1.07715,0.0283203,-1.55566,-0.157614,-0.090188
1732553762801,3.43825,-1.89049,119.898,-0.100143,-0.0769777,0.955454,3.25916,1.10938,6.70532,0.0224609,-1.55859,-0.134955,-0.0778093
1732553762868,3.4704,-1.94699,119.989,0.0201225,0.119118,0.738956,-13.0804,-4.55676,3.52429,0.0175781,-1.5625,-0.158057,-0.0915508
1732553762868,3.51701,-2.03816,120.112,-0.108562,-0.0727253,0.729578,-2.66418,-5.90015,-0.758667,0.00976562,-1.56641,-0.152804,-0.0887837
1732553762930,3.44193,-2.02003,120.222,-0.0673418,-0.166768,1.08926,3.03296,-1.29871,2.26978,0.00390625,-1.56934,-0.159727,-0.093195
1732553762930,3.57501,-2.00288,120.263,0.0497189,-0.145277,1.08637,3.51331,1.6239,0,-0.00292969,-1.57324,-0.166296,-0.0972466
1732553762990,3.58882,-2.06497,120.343,0.00954437,-0.148584,1.12037,4.56091,1.54895,1.40833,-0.00976562,-1.57715,-0.169017,-0.0991592
1732553763056,3.71101,-2.06009,120.47,0.0140095,0.0414276,0.978422,-4.92383,-3.46326,5.16028,-0.0166016,-1.58203,-0.171463,-0.101334
1732553763056,3.66199,-2.09974,120.687,0.0204639,-0.105844,0.876329,6.74585,1.42151,6.87671,-0.0234375,-1.58594,-0.155766,-0.0932012
1732553763117,3.59004,-1.96424,121.093,-0.0499058,-0.0159655,1.17653,-5.55676,0.302124,11.797,-0.0302734,-1.58984,-0.16054,-0.0979395
1732553763198,3.60184,-1.90762,121.804,-0.163096,-0.0760365,0.964916,3.29468,-0.0518799,19.6469,-0.0361328,-1.59277,-0.134905,-0.0847335
1732553763198,3.62915,-1.99603,122.528,-0.218421,-0.109994,0.88282,-1.80884,-3.17114,17.3505,-0.0429688,-1.59766,-0.155995,-0.100747
1732553763255,3.66617,-1.81234,123.224,-0.0763168,-0.189944,1.13985,8.76111,-0.351807,18.0079,-0.0498047,-1.60254,-0.180661,-0.119695
1732553763255,3.69823,-1.88937,123.658,-0.0568075,0.0153351,1.00675,-1.94897,-2.60461,7.73865,-0.0566406,-1.60645,-0.178549,-0.120193
1732553763320,3.78008,-2.07232,124.193,-0.0756321,-0.13924,0.844131,4.1864,3.80945,7.18384,-0.0634766,-1.61133,-0.18558,-0.126374
1732553763384,3.78198,-1.9617,124.48,-0.0992022,-0.189445,1.00042,0.104248,-5.13416,12.187,-0.0712891,-1.61719,-0.185811,-0.128675
1732553763384,3.71635,-1.92415,124.814,0.065403,-0.106726,1.06015,5.75806,1.23291,6.14355,-0.0791016,-1.62207,-0.185505,-0.129527
1732553763442,3.77211,-1.8964,125.09,-0.0578318,-0.0891457,0.865763,1.40552,-1.54248,11.1769,-0.0859375,-1.62695,-0.174406,-0.12347
1732553763509,3.62814,-1.92543,125.403,-0.0192204,-0.000935555,1.18598,0.415771,-0.856689,7.98132,-0.0927734,-1.63184,-0.180754,-0.129669
1732553763509,3.67346,-1.77966,126.031,-0.028409,-0.0784187,1.27886,-0.174194,0.437256,19.2056,-0.0996094,-1.63672,-0.160503,-0.118484
1732553763568,3.4655,-1.73628,126.752,0.02948,0.0722179,0.963892,-0.393311,-0.0883789,16.8662,-0.106445,-1.6416,-0.16433,-0.124262
1732553763568,3.52562,-1.66711,127.51,0.0881824,-0.00624657,1.01583,1.2467,0.856445,19.9458,-0.112305,-1.64648,-0.155403,-0.120953
1732553763630,3.56111,-1.84007,128.178,0.106174,-0.0723782,0.987301,2.45972,1.93506,10.1636,-0.119141,-1.65137,-0.156305,-0.124084
1732553763695,3.54489,-1.84756,128.732,-0.0763807,-0.0501757,0.929277,1.81702,2.72058,10.9958,-0.125,-1.65625,-0.137565,-0.111063
1732553763695,3.48668,-1.91962,129.088,-0.0847588,0.0272408,1.13658,-5.0719,1.76624,7.64893,-0.131836,-1.66211,-0.147405,-0.120371
1732553763756,3.36465,-1.89761,129.367,-0.0885391,-0.0187092,0.680128,-4.20264,-4.24878,6.09631,-0.137695,-1.66699,-0.144207,-0.118859
1732553763823,3.30777,-1.97445,129.605,-0.0765514,-0.0656939,0.94475,-5.76038,-2.63135,4.776,-0.142578,-1.67188,-0.15713,-0.13066
1732553763823,3.13831,-1.93497,129.896,-0.0437946,0.189726,0.852903,3.69739,-1.25708,7.75696,-0.147461,-1.67578,-0.102498,-0.0863075
1732553763890,2.93715,-2.02541,130.314,-0.044755,0.0502052,0.853628,-9.17749,-6.38269,14.4565,-0.15332,-1.67969,-0.135743,-0.11683
1732553763890,3.06926,-1.83846,130.987,-0.0695219,-0.178446,1.16413,4.95935,0.252441,14.4021,-0.158203,-1.68457,-0.131815,-0.11625
1732553763948,3.13052,-1.8857,131.755,-0.00812817,-0.0706768,1.01063,0.347412,-0.480469,18.7955,-0.163086,-1.68848,-0.131815,-0.11625
1732553764008,3.24948,-2.05428,132.386,-0.0212688,-0.128441,0.850443,-0.848755,-1.87634,12.3376,-0.168945,-1.69434,-0.136348,-0.125309
1732553764008,3.25333,-2.00048,132.861,-0.106768,-0.154412,0.969259,1.58838,-0.373779,14.399,-0.174805,-1.69922,-0.144179,-0.134812
1732553764065,3.34763,-2.11957,133.177,-0.0190907,-0.0472116,0.971151,3.5575,0.59082,7.35144,-0.180664,-1.70508,-0.139178,-0.131526
1732553764134,3.3665,-1.95985,133.667,0.054697,0.0331078,0.93626,-4.94019,-1.2124,16.4225,-0.186523,-1.70996,-0.141596,-0.13734
1732553764134,3.46118,-2.09771,134.546,0.0571117,0.00225639,0.761463,-1.71753,-1.99182,11.1189,-0.191406,-1.71582,-0.127762,-0.12717
1732553764197,3.31976,-2.03421,135.35,0.0560646,-0.122018,0.996098,1.44531,2.76758,22.8347,-0.197266,-1.72168,-0.134404,-0.13812
1732553764260,3.37407,-2.09943,136.249,-0.125102,-0.154226,1.05169,-0.223267,-1.07458,24.3855,-0.203125,-1.72754,-0.14795,-0.15732
1732553764260,3.45416,-1.99057,137.356,-0.316529,-0.221804,1.688,6.75134,3.33643,33.801,-0.208984,-1.7334,-0.161531,-0.178517
1732553764315,3.59233,-1.93896,138.305,-0.16455,-0.266125,1.13469,10.0588,1.42334,27.6537,-0.214844,-1.74023,-0.149716,-0.170585
1732553764381,3.58824,-2.18276,139.021,-0.0263357,0.0226021,1.02789,-5.31885,0.890503,15.908,-0.220703,-1.74707,-0.149341,-0.173212
1732553764381,3.60727,-2.12245,139.533,-0.000307083,-0.128977,1.04918,5.6925,4.17517,16.8269,-0.225586,-1.75293,-0.143028,-0.169079
1732553764444,3.71213,-2.25269,139.973,-0.0899725,-0.0385303,1.09924,-0.653687,0.475586,7.43799,-0.231445,-1.76074,-0.141293,-0.168683
1732553764505,3.67651,-1.98508,140.308,-0.0657177,-0.100798,0.995829,-0.383423,-4.47839,16.7944,-0.237305,-1.7666,-0.127911,-0.155765
1732553764505,3.66772,-2.15478,140.71,0.0889511,0.0403137,0.961504,-0.512573,-1.34924,1.62244,-0.242188,-1.77344,-0.13317,-0.164074
1732553764569,3.6353,-2.02235,141.328,-0.0387058,-0.174783,0.935799,5.87512,1.86108,16.5405,-0.24707,-1.7793,-0.126626,-0.159819
1732553764626,3.70491,-2.00992,141.877,0.226976,0.0268917,0.697346,-6.51184,-3.22791,10.6113,-0.25293,-1.78613,-0.117939,-0.152336
