time,pitch,roll,yaw,ax,ay,az,gx,gy,gz,x,y,vx,vy
1732390483063,3.54778,-2.49744,4.57764e-05,-0.191041,-0.140891,3.91952,-0.117065,0.0078125,0,0,0,0,0
1732390483064,3.58795,-2.47685,-0.00125122,-0.0427246,-0.0507383,0.978073,0.114624,-0.354614,0,0,0,0,0
1732390483064,3.59859,-2.47634,-0.00128174,-0.0426817,-0.0701313,0.989506,0.124268,-0.0563965,0,0,0,0,0
1732390483064,3.5271,-2.47266,0.00012207,-0.043067,-0.0585022,0.993717,0.0640869,-0.0585938,0,0,0,0,0
1732390483064,3.48985,-2.48374,0.00117493,-0.0389853,-0.0546799,0.986044,-0.175415,0.200562,0,0,0,0,0
1732390483064,3.49475,-2.48994,0.00135803,-0.0429811,-0.0623798,0.993631,0.0610352,-0.113281,0,0,0,0,0
1732390483064,3.47452,-2.51515,0.00265503,-0.0351171,-0.0586185,0.990063,-0.178101,0.143799,0,0,0,0,0
1732390483064,3.48347,-2.53356,0.00294495,-0.04702,-0.0506859,0.989784,-0.0598145,-0.113647,0,0,0,0,0
1732390483064,3.48485,-2.51682,0.00297546,-0.0538578,-0.0777006,0.977024,0.00598145,0.134033,0,0,0,0,0
1732390483064,3.49983,-2.53409,0.00276184,-0.0392418,-0.0546846,0.993952,0.00476074,0.0710449,0,0,0,0,0
1732390483064,3.51335,-2.50943,0.00170898,-0.0428534,-0.062377,0.989677,0.0662842,0.0672607,0,0,0,0,0
1732390483064,3.42819,-2.51129,0.00363159,-0.00834179,-0.0435295,0.999363,0.126099,0.0693359,0,0,0,0,0
1732390483064,3.39973,-2.52592,0.00253296,-0.04702,-0.0506859,0.989784,-0.116089,0.271851,-0.434448,0,0,0,0
1732390483064,3.42891,-2.51766,0.00158691,-0.0427246,-0.0623741,0.985723,-0.00256348,-0.168213,0,0,0,0,0
1732390483064,3.45964,-2.51468,0.000701904,-0.0427246,-0.0623741,0.985723,0.0012207,-0.048584,0,0,0,0,0
1732390483064,3.19202,-2.56254,-0.0192719,-0.0231943,-0.0356531,1.09002,-0.514648,-0.461426,-1.86694,0,0,0,0
1732390483064,3.16328,-2.42227,-0.0610657,-0.0291119,-0.124578,0.96899,0.633911,0.244873,1.51086,0,0,0,0
1732390483064,3.96027,-2.65381,0.000595093,-0.0412283,-0.101134,0.965099,0.472534,-0.0697021,-1.73486,0,0,0,0
1732390483064,3.59241,-2.50132,-0.032135,-0.0471487,-0.00414371,0.963135,0.000976562,-0.314331,0.575806,0,0,0,0
1732390483064,3.3181,-2.55885,-0.015564,0.00349998,-0.399886,0.627449,-0.356445,-0.000732422,0.65332,0,0,0,0
1732390483064,3.49374,-2.65186,-0.0113373,-0.0505028,-0.0467405,0.973904,0.17981,-0.305786,0,0,0,0,0
1732390483064,3.46458,-2.62814,-0.0102692,-0.0534306,-0.0854502,0.968945,-0.303101,0.026001,0,0,0,0,0
1732390483064,3.4751,-2.60203,-0.0106201,-0.0432806,-0.0313549,0.982454,0.241333,-0.242798,0,0,0,0,0
1732390483064,3.30788,-2.71366,-0.00506592,0.0252285,-0.0983963,1.0865,0.507812,0.865479,-0.53479,0,0,0,0
1732390483064,3.25739,-2.56617,0.00305176,-0.00336266,-0.0164165,0.948713,-0.854248,-0.013916,0,0,0,0,0
1732390483064,3.30276,-2.56647,0.0228577,-0.0536442,-0.0466661,0.950031,-0.241089,0.086792,0,0,0,0,0
1732390483064,3.42323,-2.52856,0.0448456,-0.0747786,-0.0968237,1.0312,0.193115,-0.222656,1.3103,0,0,0,0
1732390483064,3.6714,-2.5395,0.0371399,-0.0350742,-0.101284,1.0168,0.418945,-0.428955,0,0,0,0,0
1732390483064,3.72194,-2.56317,0.145142,-0.130595,-0.0533485,1.03399,1.75122,-0.598877,5.67456,0,0,0,0
1732390483064,3.623,0,0,0,0,0,0,0,0,0,0,0,0
1732390483064,-2.49807,0.2547,-0.0468493,-0.0817137,1.00491,-0.576416,-2.25928,2.7511,0,0,2.3365e-05,-0.00475264,4.196
1732390483064,-2.71667,0.230301,-0.0629606,-0.15906,1.06982,-3.85339,-4.22595,-2.92358,0,0.00195312,-3.24249e-05,0.00924635,4.97917
1732390483064,-2.35127,0.349548,-0.000563622,-0.117346,1.04943,-8.75098,-13.6471,13.5936,0,0.00195312,0,0,6.42622
1732390483064,-1.63892,1.61031,-0.26197,-0.32643,0.91972,-17.2784,-24.3516,42.8297,0,0.00195312,-0.00028801,0.00639534,7.23303
1732390483064,-1.77211,3.58731,-0.140894,-0.138344,0.924759,-7.73682,-27.418,47.2002,0,0.00195312,0,0,6.85181
1732390483064,-2.39504,5.50128,-0.100443,-0.0575895,0.951929,25.5905,-16.702,40.2322,0,0.00195312,0,0,5.06021
1732390483064,-2.45141,7.06245,-0.0752916,-0.120107,1.06231,51.9263,-15.6748,35.877,0,0.00195312,0,0,3.31924
1732390483064,-2.35896,8.43475,-0.0210991,-0.136461,1.09175,45.3989,0.519287,37.4926,0,0.00195312,0,0,2.73273
1732390483064,-2.47999,10.0054,-0.0820656,-0.147253,1.16832,20.7264,1.75146,43.8871,0,0.00195312,0,0,2.8775
1732390483064,-3.19446,11.8335,-0.101254,-0.119665,1.01777,13.1128,3.47852,46.8247,0,0.00195312,0,0,3.11818
1732390483064,-3.68961,13.7025,-0.0811462,-0.139345,1.01414,16.0325,6.69434,50.1174,0,0.00195312,0,0,3.09531
1732390483064,-4.23294,15.7538,-0.0314407,-0.132245,0.925179,23.3972,16.517,54.1567,0,0.00195312,0,0,2.7252
1732390483064,-4.86382,17.8808,-0.0909967,-0.108101,0.935303,26.9916,19.4945,58.4709,0,0.00195312,0,0,2.09393
1732390483064,-5.81812,20.298,-0.0873432,-0.0848923,0.928059,20.3545,26.3802,66.814,0,0.00195312,0,0,2.04749
1732390483064,-6.65451,22.9585,-0.0590935,-0.139727,1.05853,9.55457,24.4246,71.6252,0,0.00195312,0,0,2.6898
1732390483064,-7.80592,25.8219,-0.157947,-0.114861,0.952349,-8.75317,20.7679,74.0981,0,0.00195312,0,0,3.11557
1732390483064,-9.14278,28.8179,-0.127261,-0.0300131,0.915894,-16.7891,26.0708,74.4514,0,0.00195312,0,0,3.25813
1732390483064,-10.3082,31.777,-0.154634,-0.122688,0.976049,-5.61658,26.6541,73.908,0,0.00195312,0,0,3.65886
1732390483064,-10.7716,34.8093,-0.0836258,-0.0618162,1.03958,-22.0468,22.7556,81.9077,0,0.00195312,0,0,3.53119
1732390483064,-10.8105,38.372,-0.141386,0.0205441,0.956093,-30.1271,10.0928,86.959,0,0.00195312,0,0,2.86572
1732390483064,-10.862,41.9897,-0.146921,0.036087,0.995823,-23.0432,3.62512,85.8293,0,0.00195312,0,0,1.77785
1732390483064,-10.5142,45.6336,-0.142327,0.109737,0.926432,-22.84,-4.56177,84.1858,0,0.00195312,0,0,0.200409
1732390483064,-10.0532,49.1841,-0.127668,0.136633,0.939491,-15.3491,-2.5304,83.916,0,0.00195312,0,0,-1.43648
1732390483064,-9.31496,52.8718,-0.0979652,0.16716,0.969051,-11.7991,-0.614136,92.6975,0,0.00195312,0,0,-3.59201
1732390483064,-8.55661,57.0141,-0.073904,0.221119,0.915798,-1.11743,2.71985,103.503,0,0.00195312,0,0,-6.02377
1732390483064,-7.61061,61.4155,-0.118416,0.202349,0.973026,12.7206,-0.458862,110.887,0,0.00195312,0,0,-8.04312
1732390483064,-6.96913,65.9337,-0.0759554,0.221081,0.979057,9.92065,7.01233,110.81,0,0.00195312,0,0,-9.3325
1732390483064,-5.95377,70.3966,-0.102304,0.163332,0.984631,1.75256,-1.63574,108.902,0,0.00195312,0,0,-10.4623
1732390483064,-5.24813,0,0,0,0,0,0,0,0,0,0,0,0
1732390483066,74.4198,-0.0676422,0.248255,0.825611,4.61572,-2.70715,92.4858,0,0.00195312,0,0,-12.3905,-4.39843
1732390483066,78.7073,-0.101449,0.229288,0.914919,21.6565,-4.56055,80.7512,0,0.00195312,0,0,-13.3736,-3.80554
1732390483066,80.6763,-0.0939693,0.198133,0.946163,21.4572,-6.01416,64.0356,0,0.00195312,0,0,-14.0248,-3.38547
1732390483066,82.8074,-0.0904436,0.209702,0.950525,15.9139,-0.444702,50.2915,0,0.00195312,0,0,-13.6929,-3.29559
1732390483066,84.6082,-0.0432825,0.11965,1.12447,6.92493,9.14526,41.8126,-0.000976562,0.00195312,-0.0201564,0.00161695,-12.1058,-2.71297
1732390483066,86.1329,0.0229397,0.141911,1.11963,-14.8379,9.09094,30.8666,-0.000976562,0.00195312,0,0,-10.2762,-1.83222
1732390483066,87.1951,0.055336,0.0212173,1.16562,-10.8768,1.29272,19.4528,-0.000976562,0.00195312,0,0,-8.28168,-0.89019
1732390483066,87.8629,0.0758305,0.0597267,1.11187,-20.979,5.28906,11.4674,-0.00195312,0.00195312,0,0,-7.00967,-0.156807
1732390483066,88.2695,0.0821342,0.0558338,1.04077,-12.4659,6.63354,5.18176,-0.00195312,0.00195312,0,0,-5.27075,0.52887
1732390483066,88.2862,0.111561,-0.0492697,1.04742,-11.1398,3.32263,-6.62476,-0.00195312,0.00195312,0,0,-3.50536,2.0491
1732390483066,88.0324,0.181522,0.0155945,1.01995,-29.3473,1.31946,-4.44556,-0.00195312,0.00195312,0,0,-2.16983,3.00803
1732390483066,88.0508,0.0745277,0.0639801,0.787304,-24.3406,9.50195,0,-0.00195312,0.00195312,0,0,-2.3075,2.64206
1732390483066,87.8593,0.0925407,0.121836,0.797245,9.31763,17.0924,-8.91138,-0.00195312,0.00195312,0,0,-4.03262,2.7446
1732390483066,87.3356,0.0922852,0.0520134,0.851057,30.7758,17.8373,-18.5507,-0.00195312,0.00195312,0,0,-5.44423,3.0134
1732390483066,86.4086,0.175325,0.163137,0.872654,26.2881,18.0144,-28.8801,-0.00195312,0.00195312,0,0,-6.46507,3.15829
1732390483066,85.7091,0.121111,0.0668736,1.03857,13.3639,18.3073,-16.2683,-0.00195312,0.00195312,0,0,-5.99928,3.51491
1732390483066,84.9207,0.119017,0.0513191,1.11335,6.23364,-6.25476,-26.7544,-0.00195312,0.00195312,-0.0126829,0.00124264,-5.55203,3.43233
1732390483066,83.508,0.0443974,0.017664,1.0226,20.0005,-3.79626,-47.7301,-0.00292969,0.00195312,-0.0171251,0.00228405,-6.17676,3.57613
1732390483066,81.0704,0.180218,0.00767899,1.18598,34.6024,4.39124,-73.0343,-0.00292969,0.00195312,0,0,-7.20863,2.92648
1732390483066,78.0091,0.227402,-0.10939,1.25638,5.07043,6.96851,-80.5748,-0.00292969,0.00195312,0,0,-6.08669,3.05231
1732390483066,74.6942,0.0985889,-0.0801458,1.10559,10.6296,-1.26282,-89.6401,-0.00292969,0.00195312,0,0,-5.05507,2.9905
1732390483066,70.8514,0.0730305,-0.072072,1.16417,18.9824,-9.9176,-105.15,-0.00292969,0.00195312,0,0,-3.61815,4.55624
1732390483066,61.9607,0.0639706,0.0136223,0.904503,-13.1285,-30.5155,-110.399,-0.00292969,0.00195312,0,0,-3.07986,5.37073
1732390483066,57.6276,0.0706596,0.0213737,0.813889,-7.83276,-25.6615,-105.405,-0.00292969,0.00195312,0,0,-3.41379,6.03735
1732390483066,53.5207,-0.01332,0.0459881,0.732027,5.9989,-21.2183,-99.7583,-0.00292969,0.00195312,0,0,-4.40015,6.58031
1732390483066,49.518,-0.0854626,0.074173,0.765509,18.2988,-19.5149,-100.2,-0.00292969,0.00195312,0,0,-5.51625,5.51245
1732390483066,45.5969,-0.0559101,0.0618973,0.948473,13.7522,-7.34155,-91.3949,-0.00292969,0.00195312,0,0,-5.42973,4.28143
1732390483066,42.0057,0.0127048,0.0567837,1.12916,2.24402,-19.2413,-89.5789,-0.00292969,0.00195312,-0.00350285,0.00365162,-5.56125,4.36807
1732390483066,38.3987,0.0155468,0.0295544,1.18011,15.6665,-35.3065,-85.0168,-0.00292969,0.00195312,0,0,-6.57205,5.46395
1732390483066,34.9843,-0.00112057,0.0530434,1.19583,28.1342,-49.5481,-83.0515,-0.00292969,0.00195312,0,0,-7.82858,6.59376
1732390483066,31.8067,0.0700169,-0.00244427,1.33191,18.4141,-35.9321,-70.5465,-0.00292969,0.00195312,0,0,-8.32074,7.5872
1732390483066,29.4893,0.0492897,-0.0447035,1.27472,-5.74927,-32.568,-42.4064,-0.00292969,0.00195312,-0.00143433,0.00243378,-6.87251,8.19128
1732390483066,27.9078,0.044054,0.00989914,1.03824,-25.7534,-40.095,-41.1897,-0.00390625,0.00390625,-0.0137725,0.025156,-4.63994,8.94135
1732390483066,25.7818,0.148678,-0.0148573,0.966511,-33.8513,-30.58,-51.9353,-0.00390625,0.00390625,-0.00775337,0.0152946,-2.65321,8.60378
1732390483066,24.0641,0.00822067,-0.0358582,0.845789,-24.4056,-6.18152,-35.0072,-0.00390625,0.00390625,0,0,-0.937393,7.67604
1732390483066,22.5328,0.070446,-0.0329342,0.856182,-23.2885,-0.709351,-41.0571,-0.00390625,0.00390625,0,0,0.148193,7.75288
1732390483066,20.6835,0.0868797,0.0794621,0.637705,-28.0105,-2.63074,-44.8894,-0.00390625,0.00390625,0,0,0.782623,7.5487
1732390483066,18.9741,0.0596333,0.114788,0.609749,-18.4324,15.3558,-35.26,-0.00390625,0.00390625,0,0,0.601044,6.3938
1732390483066,17.7115,-0.030715,0.0966167,0.752308,13.9951,24.7505,-30.9337,-0.00390625,0.00390625,0,0,-0.599945,4.79073
1732390483066,16.5332,0.0578384,0.0213966,0.967785,13.0708,23.6141,-28.9031,-0.00390625,0.00390625,0,0,-0.481674,4.96522
1732390483066,15.3365,0.134104,0.0125504,0.915112,-5.11145,-2.62451,-29.8668,-0.00390625,0.00390625,0,0,-0.515244,4.55252
1732390483066,14.5381,-0.120275,0.0977192,0.978474,-5.60864,-6.63354,-7.77502,-0.00390625,0.00390625,0,0,-1.73439,2.37585
1732390483066,14.5511,-0.032896,0.0032177,1.1222,21.631,25.1143,0.624634,-0.00390625,0.00390625,0,0,-2.5641,0.840744
1732390483066,14.4647,-0.0153742,-0.0244017,1.32414,28.5222,35.9933,-2.84973,-0.00390625,0.00390625,0,0,-3.55424,-0.475258
1732390483066,14.302,-0.0527697,-0.0780802,1.30563,16.9878,30.5471,-8.00793,-0.00390625,0.00390625,0,0,-3.84109,-2.17163
1732390483066,14.0539,-0.116556,-0.0188398,1.1818,21.2738,32.1836,-4.36792,-0.00390625,0.00390625,0,0,-3.34021,-4.43275
1732390483066,13.8182,-0.188035,-0.0525703,1.11492,9.34888,27.5499,-7.90149,-0.00390625,0.00390625,0,0,-2.67819,-5.76583
1732390483066,13.4803,-0.0764456,0.00787163,1.01374,0.499023,21.7828,-5.89539,-0.00390625,0.00390625,0,0,-2.53564,-6.15995
1732390483066,13.3264,-0.116447,0.0319862,0.783136,3.79614,8.10498,-1.21558,-0.00390625,0.00390625,0,0,-3.06148,-6.44238
1732390483066,13.3258,-0.0703764,0.0700474,0.785793,14.5529,3.03906,1.59387,-0.00390625,0.00390625,0,0,-3.61543,-6.42564
1732390483066,13.4341,-0.0649271,0.0583801,0.746149,9.18506,-0.823486,5.42761,-0.00390625,0.00390625,0,0,-3.94841,-6.24097
1732390483066,13.6556,-0.0809107,0.0508537,0.761192,8.45886,-10.1265,5.20569,-0.00390625,0.00390625,0,0,-4.2343,-5.75945
1732390483066,13.6962,-0.0516787,0.0619774,0.818001,7.05908,-7.08618,-2.39709,-0.00390625,0.00390625,0,0,-4.02766,-5.08174
1732390483066,13.529,-0.0158644,0.0186558,0.949034,9.15454,1.76172,-4.46228,-0.00390625,0.00390625,0,0,-4.38951,-4.45302
1732390483066,13.2354,-0.0616589,0.0580425,1.00754,21.1602,-3.26636,-11.3593,-0.00390625,0.00390625,0,0,-4.7541,-4.11243
1732390483066,12.5857,-0.0624495,0.0152283,1.18072,10.6516,2.17529,-14.7029,-0.00390625,0.00390625,0,0,-4.69362,-4.35896
1732390483066,12.0988,-0.10786,-0.0501051,1.29622,-4.44824,7.74243,-13.7986,-0.00390625,0.00390625,-0.00346994,0.0158634,-4.71651,-4.58353
1732390483066,11.327,-0.0136642,0.0144176,1.24593,7.91479,0.75769,-22.7365,-0.00390625,0.00390625,0,0,-4.81543,-4.42952
1732390483066,10.5305,-0.0134506,0.0454521,1.21894,5.51221,-2.54456,-16.5206,-0.00390625,0.00390625,0,0,-4.58014,-4.27773
1732390483066,10.0327,-0.116814,0.109156,1.10555,-4.78699,-7.6095,-8.55603,-0.00390625,0.00390625,0,0,-5.08205,-4.74139
1732390483066,9.64294,-0.178015,0.187704,1.00997,-7.5769,-12.5674,-12.7803,-0.00390625,0.00390625,0,0,-5.78032,-4.9924
1732390483066,8.82239,-0.119804,0.210213,0.890018,-15.3495,-17.6395,-27.2823,-0.00390625,0.00390625,0,0,-6.35938,-4.492
1732390483066,7.56305,-0.0897379,0.198214,0.815691,-16.6206,-20.9567,-36.4474,-0.00390625,0.00390625,0,0,-6.47118,-3.82157
1732390483066,5.83505,-0.0291986,0.112026,0.816059,4.95288,-20.1912,-46.8185,-0.00390625,0.00390625,0,0,-6.4272,-2.68517
1732390483066,3.97194,0.0023632,0.0377274,0.977886,12.17,-17.7994,-44.8136,-0.00390625,0.00390625,0,0,-5.71434,-1.36114
1732390483066,2.11301,0.0217018,-0.00523853,1.01328,7.00635,-21.1198,-46.5084,-0.00390625,0.00390625,0,0,-5.26329,-0.425743
1732390483066,0.0311279,0.0264244,0.056778,0.947586,12.0367,-18.7668,-56.0183,-0.00390625,0.00390625,0,0,-4.82275,0.648781
1732390483066,-2.25032,0.0698471,-0.0060606,1.09826,9.39771,-8.93604,-51.9666,-0.00390625,0.00390625,0,0,-4.08266,0.778557
1732390483066,-3.76712,-0.0150738,0.0262947,1.04029,-0.598877,7.2002,-30.5645,-0.00390625,0.00390625,0,0,-3.57111,-0.0253296
1732390483066,-4.91544,-0.0466576,-0.0352974,1.08912,10.2206,-0.0501709,-28.1569,-0.00390625,0.00390625,0,0,-2.83965,-0.549828
1732390483066,-6.26591,-0.104482,-0.0226231,0.932779,6.505,-15.285,-38.0126,-0.00390625,0.00390625,0,0,-2.65315,-1.05521
1732390483066,-8.11533,-0.0963182,-0.0266142,0.925087,15.141,-21.3853,-49.8733,-0.00390625,0.00390625,0,0,-2.3313,-1.32262
1732390483066,-10.1806,-0.0976439,0.00439072,0.945539,0.61438,-16.5695,-50.7753,-0.00390625,0.00390625,0,0,-1.44077,-1.75711
1732390483066,-12.3176,-0.134078,-0.00285721,0.987511,-14.4766,-15.9623,-54.8477,-0.00390625,0.00390625,0,0,-0.421265,-2.49204
1732390483066,-14.7784,-0.139484,-0.0338564,1.05389,-14.1943,-15.8329,-70.094,-0.00390625,0.00390625,0,0,0.618195,-2.54485
1732390483066,-18.0354,-0.0940752,-0.0267048,0.976635,-11.1545,-20.438,-90.5101,-0.00390625,0.00390625,0,0,0.851395,-1.84662
1732390483066,-21.9439,-0.0169754,0.0341492,0.973097,-5.66565,-16.1486,-101.829,-0.00390625,0.00390625,0,0,0.354767,-0.599991
1732390483066,-26.1206,0.0574532,0.0795708,0.941391,-3.64062,-20.5884,-107.834,-0.00390625,0.00390625,0,0,-0.280319,1.34306
1732390483066,-30.4048,0.0858955,0.0597839,0.922245,-0.872314,-25.9907,-103.884,-0.00390625,0.00390625,0,0,-1.2394,2.95105
1732390483066,-34.3374,0.10626,0.0517445,0.903055,3.78113,-24.7333,-92.8212,-0.00390625,0.00390625,0,0,-2.20676,4.55614
1732390483066,-37.6653,0.0853825,0.0946827,0.915108,0.835938,-28.3622,-72.5248,-0.00390625,0.00390625,0,0,-5.82224,4.53538
1732390483066,-40.5208,-0.124701,0.807318,0.768917,-2.00525,-30.149,-84.0509,-0.00390625,0.00390625,0,0,-7.0714,5.34538
1732390483066,-45.2422,0.25845,0.165657,0.963022,-15.1199,-19.0844,-112.931,-0.00390625,0.00390625,0,0,-6.36765,7.82147
1732390483066,-48.6539,0.110577,0.0127716,1.03693,-12.6888,-47.5643,-58.2671,-0.00390625,0.00390625,0,0,-5.96387,7.75994
1732390483066,-50.7763,-0.0227242,0.169931,0,0,0,0,0,0,0,0,0,0
1732390483068,0.940359,-26.056,-31.6011,-50.573,-0.00390625,0.00390625,0,0,-5.88864,7.33109,-53.2345,0.096344,0.0944901
1732390483068,0.93928,-10.2522,-7.29834,-57.0585,-0.00390625,0.00390625,0,0,-6.29546,6.7841,-55.4491,0.0959167,0.137148
1732390483068,0.924406,-1.31738,4.21118,-46.49,-0.00390625,0.00390625,0,0,-6.35706,6.6758,-57.0074,0.115108,0.00510025
1732390483068,0.902328,14.1069,3.66113,-33.3894,-0.00390625,0.00390625,0,0,-6.06543,5.98549,-57.8791,0.00561142,0.0183964
1732390483068,0.890478,24.8163,-3.28406,-17.9746,-0.00390625,0.00390625,0,0,-6.44031,4.4679,-58.6293,-0.0648422,0.100782
1732390483068,0.956936,12.7491,-6.86328,-20.0576,-0.00390625,0.00390625,0,0,-6.16322,3.77708,-59.5085,0.105213,0.102016
1732390483068,1.02293,-25.6937,5.55823,-16.1803,-0.00390625,0.00390625,0,0,-5.35173,4.1587,-59.6064,0.0646744,0.176411
1732390483068,0.896385,-31.4843,-1.56494,9.16772,-0.00390625,0.00390625,0,0,-5.55797,4.35548,-59.1899,0.0636501,0.176392
1732390483068,0.928015,-10.0344,-16.7053,15.0542,-0.00390625,0.00390625,0,0,-6.50763,4.78902,-58.3549,0.00894356,0.192738
1732390483068,0.914396,-1.53894,-10.2484,31.259,-0.00390625,0.00390625,0,0,-6.75864,3.74741,-57.0434,-0.0949955,0.151567
1732390483068,1.0084,-16.0159,-4.04358,38.104,-0.00390625,0.00390625,0,0,-5.87787,2.84594,-55.5603,0.0156765,0.0763683
1732390483068,0.904072,-19.8092,3.6991,41.8279,-0.00390625,0.00390625,0,0,-4.64308,2.51192,-53.8058,-0.0265493,0.0381126
1732390483068,1.02428,-16.1134,-2.823,43.7095,-0.00390625,0.00390625,0,0,-3.29472,2.30752,-52.2829,0.0452518,0.0254383
1732390483068,0.991142,-17.8851,-2.19141,35.5153,-0.00390625,0.00390625,0,0,-2.87148,2.93461,-50.9978,0.11483,0.0204773
1732390483068,1.02143,6.22656,-8.3136,28.1157,-0.00390625,0.00390625,0,0,-2.58919,4.0211,-49.8295,0.0998497,-0.0996494
1732390483068,1.2002,6.89417,-14.2786,30.776,-0.00390625,0.00390625,0,0,-1.60597,4.61442,-48.5252,0.130259,-0.0806122
1732390483068,1.09493,-21.0867,-6.85815,32.0997,-0.00390625,0.00390625,0,0,0.392273,5.72244,-47.3087,0.156458,-0.135219
1732390483068,1.04719,0.0495605,-10.6868,26.4092,-0.00390625,0.00390625,0,0,0.299713,6.0077,-46.4409,0.0484772,-0.013423
1732390483068,1.03788,33.9966,-16.9712,14.6001,-0.00390625,0.00390625,0,0,-0.871078,5.87368,-45.8172,0.0928192,0.0131016
1732390483068,0.980825,31.6945,0.75415,13.8733,-0.00390625,0.00390625,0,0,-2.06102,5.30792,-44.99,0.0320034,0.021841
1732390483068,0.919289,37.5081,4.67749,24.3743,-0.00390625,0.00390625,0,0,-3.06897,4.02321,-43.7256,-0.0467634,-0.0157728
1732390483068,0.958923,34.5554,2.70654,33.2759,-0.00390625,0.00390625,0,0,-2.98083,2.72841,-42.2905,-0.0609093,-0.0193863
1732390483068,0.914747,13.2979,0.207642,36.7362,-0.00390625,0.00390625,0,0,-2.60371,1.25027,-40.8438,-0.11226,0.0046463
1732390483068,0.913311,0.345703,-0.141968,35.595,-0.00390625,0.00390625,0,0,-1.79936,0.373131,-39.5502,-0.043067,0.0113163
1732390483068,0.947811,-18.0731,-0.964233,31.7886,-0.00390625,0.00390625,0,0,-1.31395,-0.461746,-38.4601,-0.055397,0.0968151
1732390483068,0.909706,-22.7913,-0.229614,21.4246,-0.00390625,0.00390625,0,0,-1.23334,-0.0719833,-37.8423,-0.0144758,0.103882
1732390483068,0.970835,-23.916,-10.3058,13.6073,-0.00390625,0.00390625,0,0,-1.40382,-0.454086,-37.4135,-0.0484104,0.15473
1732390483068,1.01819,-25.1234,1.99963,7.87573,-0.00390625,0.00390625,0,0,-2.12639,-0.262787,-37.1436,0.0905743,0.140926
1732390483068,1.08659,-8.67126,8.83289,7.02026,-0.00390625,0.00390625,0,0,-3.09436,-0.130371,-36.5787,-0.086278,0.139565
1732390483068,1.23015,10.3577,-4.34595,22.2826,-0.00390625,0.00390625,0,0,-3.42125,0.0699081,-35.2867,-0.0506754,0.100384
1732390483068,1.12374,0.676147,-1.38318,41.4548,-0.00390625,0.00390625,0,0,-4.18405,0.111229,-33.0864,0.140236,0.0743275
1732390483068,1.0474,26.2015,29.0573,65.1814,-0.00390625,0.00390625,0,0,-4.94496,0.626823,-29.6847,0.144169,0.0123425
1732390483068,0.966961,40.9927,37.5741,96.1323,-0.00390625,0.00390625,0,0,-5.82472,0.67131,-25.2923,0.090704,-0.0100775
1732390483068,0.940624,51.8699,37.1427,111.772,-0.00390625,0.00390625,0,0,-5.87898,0.240089,-20.5402,0.0112972,-0.0709753
1732390483068,1.01533,33.6471,37.0789,119.893,-0.00390625,0.00390625,0,0,-4.67551,-0.828232,-15.7136,-0.0150089,-0.0666618
1732390483068,0.978781,2.69031,33.364,113.976,-0.00390625,0.00390625,0,0,-3.09276,-1.77159,-11.6147,-0.0381727,-0.0507851
1732390483068,0.958454,-12.1428,14.9103,92.1035,-0.00390625,0.00390625,0,0,-1.93095,-1.35235,-8.1167,0.0405083,0.0256138
1732390483068,0.895952,-18.4344,0.657837,84.5059,-0.00390625,0.00390625,0,0,-1.24365,-0.518379,-4.81912,0.0368538,0.0256786
1732390483068,0.887896,-15.3115,-7.198,81.1479,-0.00390625,0.00390625,0,0,-1.60591,0.19857,-1.56927,-0.0214624,0.115786
1732390483068,0.816446,-6.3623,-9.88184,80.0493,-0.00390625,0.00390625,0,0,-2.67636,0.0130157,1.304,-0.0146465,0.111635
1732390483068,0.971004,0.277466,-2.29077,65.5737,-0.00390625,0.00390625,0,0,-3.65201,-0.110886,3.75134,-0.0815535,0.166937
1732390483068,0.94593,-6.7251,-5.82153,57.2341,-0.00390625,0.00390625,0,0,-4.923,-0.519409,5.52634,-0.0946102,0.186483
1732390483068,0.973583,10.5565,-15.2808,33.6332,-0.00390625,0.00390625,0,0,-6.88838,-0.350952,6.29622,-0.0350542,0.173977
1732390483068,0.955809,30.9293,-19.7126,13.7086,-0.00390625,0.00390625,0,0,-8.2007,0.245415,6.96819,-0.00547981,0.0881367
1732390483068,1.06583,35.5194,-14.025,25.516,-0.00390625,0.00390625,0,0,-8.34686,0.29834,8.36993,-0.0900154,0.0274086
1732390483068,1.05721,30.7815,-3.97717,45.2695,-0.00390625,0.00390625,0,0,-8.3513,-0.839462,10.2937,-0.164765,0.0516644
1732390483068,1.17363,30.4971,7.87878,54.0903,-0.00390625,0.00390625,0,0,-9.23019,-1.28654,12.6559,-0.118288,-0.0306425
1732390483068,1.36356,7.60144,26.9263,58.6958,-0.00390625,0.00390625,0,0,-8.32422,-2.18033,15.0541,-0.0908709,0.0196342
1732390483068,1.08867,-15.4017,26.6028,58.9099,-0.00390625,0.00390625,0,0,-6.48369,-3.27325,17.6026,-0.0838184,-0.0968618
1732390483068,1.1892,3.83191,28.2905,68.9705,-0.00390625,0.00390625,0,0,-4.81146,-3.98637,20.6161,-0.0594778,-0.05828
1732390483068,1.01684,-9.62744,20.7129,78.4331,-0.00390625,0.00390625,0,0,-3.59198,-4.07142,23.7169,-0.0239191,-0.00824928
1732390483068,0.853094,-0.506592,13.6456,75.0662,-0.00390625,0.00390625,0,0,-3.37619,-3.69978,26.6476,0.0240326,0.00269508
1732390483068,0.815615,5.76135,16.1976,73.1201,-0.00390625,0.00390625,0,0,-3.44606,-3.48046,29.6897,0.0178356,0.0338745
1732390483068,0.744833,7.13391,13.46,77.1375,-0.00390625,0.00390625,0,0,-4.39824,-3.6997,32.7737,-0.0110769,0.0342617
1732390483068,0.791227,29.3079,9.83411,77.2432,-0.00390625,0.00390625,0,0,-5.33353,-3.4817,35.8764,-0.05935,0.0464497
1732390483068,0.944027,24.9341,10.3171,77.8455,-0.00390625,0.00390625,0,0,-5.63528,-3.63539,38.7239,-0.028964,0.0459595
1732390483068,0.972904,9.70215,16.3799,63.8884,-0.00390625,0.00390625,0,0,-5.33171,-3.11971,40.862,0.0701885,0.0249767
1732390483068,1.06731,8.40613,12.1407,42.0558,-0.00390625,0.00390625,0,0,-5.20879,-2.19608,42.1906,0.0442886,0.118376
1732390483068,1.08033,4.09607,2.91846,24.3566,-0.00390625,0.00390625,0,0,-5.98697,-1.01684,43.0451,0.108717,0.128967
1732390483068,1.13849,9.77893,0.937744,18.0061,-0.00390625,0.00390625,0,0,-5.81082,-0.286484,43.6757,0.0354424,0.0719299
1732390483068,1.14226,-13.3525,-6.86145,11.9744,-0.00390625,0.00390625,0,0,-5.1261,1.15959,43.7298,0.200176,0.096735
1732390483068,0.994816,-20.4506,-1.96875,-9.35229,-0.00390625,0.00390625,0,0,-4.06839,2.69666,43.3014,0.123119,0.0513973
1732390483068,0.986834,-24.0748,-1.21594,-13.9287,-0.00390625,0.00390625,0,0,-3.52092,3.10411,42.7351,0.0969868,0.106138
1732390483068,0.911861,-20.589,0.0335693,-16.278,-0.00390625,0.00390625,0,0,-2.86865,3.67957,42.1198,0.0439053,0.0720901
1732390483068,0.881315,-16.9889,0.546753,-11.2186,-0.00390625,0.00390625,0,0,-3.12073,3.59229,41.6421,0.0636082,0.0913239
1732390483068,0.743961,11.6248,-1.62634,-11.3396,-0.00390625,0.00390625,0,0,-4.41966,3.19585,41.418,0.0174294,0.0957947
1732390483068,0.837286,38.8446,12.6915,-3.4032,-0.00390625,0.00390625,0,0,-5.85919,2.33097,41.4468,0.0207405,0.0297852
1732390483068,0.899242,39.8524,16.2899,3.03101,-0.00390625,0.00390625,0,0,-6.29282,1.51632,41.7951,0.0110817,0.049263
1732390483068,0.94286,21.9364,14.0989,10.6287,-0.00390625,0.00390625,0,0,-6.09781,1.09161,42.3312,0.0300369,0.029562
1732390483068,0.974812,11.2653,12.9812,13.951,-0.00390625,0.00390625,0,0,-5.29329,0.916382,43.1407,0.07724,0.0248432
1732390483068,1.09134,-3.10022,18.1537,22.3969,-0.00390625,0.00390625,0,0,-4.36942,0.753494,44.2771,0.0261898,0.0527611
1732390483068,1.07812,-8.32336,23.2413,30.2842,-0.00390625,0.00390625,0,0,-5.48647,-0.668861,45.4522,-0.022191,0.189201
1732390483068,1.03187,21.847,31.4991,24.9999,-0.00390625,0.00390625,0,0,-6.41878,-1.66541,46.3487,0.0372353,-0.0213928
1732390483068,1.38959,-5.84021,22.5417,17.73,-0.00390625,0.00390625,0,0,-4.52504,-2.20782,47.1236,-0.0440292,0.0228004
1732390483068,1.09055,-59.0906,9.22913,15.0905,-0.00390625,0.00390625,0,0,-1.87389,-2.1263,47.3233,0.0379429,-0.0442524
1732390483068,1.02093,-37.8214,2.05896,-5.87634,-0.00390625,0.00390625,0,0,0.483414,-1.11301,46.8172,0.0958328,-0.0451555
1732390483068,1.04691,-40.3103,6.83972,-17.1154,-0.00390625,0.00390625,0,0,1.98096,-0.184692,46.1712,0.0935249,0.0132484
1732390483068,0.838341,-37.2612,13.535,-15.8663,-0.00390625,0.00390625,0,0,2.54793,0.218933,45.3991,0.0994015,0.0520153
1732390483068,0.752365,-21.5032,9.26233,-21.4764,-0.00390625,0.00390625,0,0,3.19711,-0.194107,44.5006,-0.0206709,0.100418
1732390483068,0.681526,-12.1188,16.3737,-22.2072,-0.00390625,0.00390625,0,0,3.23755,-0.928543,43.261,0.0274296,0.0957184
1732390483068,0.770374,8.38879,22.5045,-37.031,-0.00390625,0.00390625,0,0,1.38194,-1.07087,41.6531,0.0201435,0.0569248
1732390483068,0.899841,10.2303,17.4048,-41.3562,-0.00390625,0.00390625,0,0,0.59465,-0.630196,39.8041,0.0697613,-0.0370922
1732390483068,1.1213,3.73413,-1.9137,-50.5178,-0.00390625,0.00390625,0,0,1.14748,0.44294,37.4753,0.113974,-0.0222063
1732390483068,1.07584,-8.95435,-19.769,-66.7068,-0.00390625,0.00390625,0,0,0.663971,2.28672,34.7065,0.159918,-0.0539656
1732390483068,1.12836,27.9371,-10.3418,0,0,0,0,0,0,0,0,0,0
1732390483069,-67.5964,-0.00390625,0.00390625,0,0,-0.660706,2.70892,32.366,0.0929241,-0.146325,1.44431,23.2439,-8.53967
1732390483069,-53.0868,-0.00390625,0.00390625,0,0,-0.695114,3.25391,30.1902,0.0764294,-0.0721416,1.18013,-13.7968,-18.969
1732390483069,-58.6453,-0.00390625,0.00390625,0,0,0.359741,4.31621,27.5685,0.116987,-0.0688276,1.13427,-20.2903,-23.8376
1732390483069,-67.5967,-0.00390625,0.00390625,0,0,2.01619,5.49184,25.1824,0.0857258,-0.0720987,1.01423,-41.6427,-11.7618
1732390483069,-49.1578,-0.00390625,0.00390625,0,0,3.45235,5.30436,23.3344,0.0308704,-0.0168352,0.858978,-38.3984,-1.50012
1732390483069,-43.422,-0.00390625,0.00390625,0,0,4.27814,4.73088,21.6901,0.00567627,-0.0396519,0.806017,-24.5577,0.0643311
1732390483069,-35.5847,-0.00390625,0.00390625,0,0,4.77023,4.80759,20.3958,-0.00795555,-0.0898008,0.776628,-7.995,-1.75684
1732390483069,-27.5505,-0.00390625,0.00390625,0,0,4.94672,4.41814,19.6031,-0.0431938,0.0115795,0.710289,-3.3147,19.0809
1732390483069,-14.6488,-0.00390625,0.00390625,0,0,4.54897,3.64286,18.9485,-0.0250092,0.0267735,0.743011,23.0682,17.2479
1732390483069,-19.2526,-0.00390625,0.00390625,0,0,2.69403,2.3086,18.2592,-0.0390282,-0.0236502,0.966961,34.6844,9.62183
1732390483069,-15.4644,-0.00390625,0.00390625,0,0,1.52182,1.52583,17.7079,0.00161552,-0.0477524,1.1778,23.0913,1.698
1732390483069,-13.8994,-0.00390625,0.00390625,0,0,0.885284,1.31866,17.2032,0.0360832,-0.0327845,1.19135,14.3816,-0.56311
1732390483069,-12.8987,-0.00390625,0.00390625,0,0,0.496643,1.50542,16.6431,0.0726662,-0.0760908,1.29866,2.39941,-7.98645
1732390483069,-15.0299,-0.00390625,0.00390625,0,0,0.849609,2.02589,15.9505,0.0503807,-0.0794592,1.14333,-5.82275,-13.3462
1732390483069,-18.5614,-0.00390625,0.00390625,0,0,1.50208,1.92781,15.2387,-0.0465717,-0.0740833,1.11199,-1.21777,-4.54968
1732390483069,-19.61,-0.00390625,0.00390625,0,0,2.16873,1.34702,14.3244,0.00426483,-0.0748539,1.11394,-13.1207,4.35376
1732390483069,-24.8649,-0.00390625,0.00390625,0,0,3.33835,1.40519,13.3473,0.0830116,-0.0565014,0.966974,-32.3408,12.2686
1732390483069,-20.96,-0.00390625,0.00390625,0,0,3.93549,1.34439,12.4843,0.0127277,0.0183964,0.791784,-14.6271,2.22632
1732390483069,-23.6667,-0.00390625,0.00390625,0,0,3.49681,1.64801,11.2815,0.0390339,0.00244713,0.835983,14.7798,-8.11963
1732390483069,-33.7917,-0.00390625,0.00390625,0,0,2.02715,2.02756,9.96689,0.0191383,0.0647964,0.804972,15.5452,-5.09131
1732390483069,-32.0168,-0.00390625,0.00390625,0,0,0.36087,2.07935,8.58963,0.0484142,-0.00165462,0.911469,25.9688,0.734375
1732390483069,-35.4348,-0.00390625,0.00390625,0,0,-0.863144,1.80377,7.19429,0.0245438,0.0140762,1.03363,23.6399,3.56506
1732390483069,-37.672,-0.00390625,0.00390625,0,0,-0.90303,2.1665,5.65076,0.0696754,-0.0448513,1.12903,8.599,-6.63208
1732390483069,-39.7202,-0.00390625,0.00390625,0,0,-1.2075,2.96563,3.86771,0.0582008,0.00187683,1.09007,10.1158,-24.5714
1732390483069,-50.2212,-0.00390625,0.00390625,0,0,-0.592331,3.56018,1.91385,0.0192242,-0.102255,1.15347,-0.38562,-15.0303
1732390483069,-44.7222,-0.00390625,0.00390625,0,0,0.173416,3.7315,0.276154,0.0833302,-0.0217199,1.05487,-4.30457,-14.2664
1732390483069,-41.976,-0.00390625,0.00390625,0,0,0.403412,4.79828,-1.47723,0.115641,-0.0338106,1.0321,-7.10706,-18.3361
1732390483069,-43.538,-0.00390625,0.00390625,0,0,1.37375,5.67618,-3.01279,0.117094,-0.0182676,0.977087,-35.5726,-3.50085
1732390483069,-29.8668,0,0,0,0,0,0,0,0,0,0,0,0
1732390483076,-0.00390625,0.00390625,0,0,2.1564,5.33387,-4.05765,0.0391617,0.0257225,0.816729,-26.2756,2.01538,-22.8593
1732390483076,-0.00390625,0.00390625,0,0,1.78497,4.97362,-5.01186,0.0587578,0.0409412,0.80596,-3.10938,5.42493,-20.6205
1732390483076,-0.00390625,0.00390625,0,0,0.558258,4.58076,-5.78284,0.0347385,0.0606804,0.809441,12.6355,2.01562,-17.2864
1732390483076,-0.00390625,0.00390625,0,0,-1.02411,4.33442,-6.4236,0.0453587,0.0527248,0.849257,23.0706,0.775146,-13.6349
1732390483076,-0.00390625,0.00390625,0,0,-2.06555,3.77587,-6.84433,0.0520039,0.00978279,1.03459,16.6919,4.5802,-8.29675
1732390483076,-0.00390625,0.00390625,0,0,-1.83176,3.22386,-6.92023,0.0155697,-0.0323734,1.09951,1.97668,2.70679,1.42676
1732390483076,-0.00390625,0.00390625,0,0,-1.04213,2.87008,-6.71161,0.0421734,-0.0328026,1.12428,1.54016,2.26282,7.8761
1732390483076,-0.00390625,0.00390625,0,0,-1.35629,2.4607,-6.42139,0.00702095,0.00651932,1.09612,23.0308,2.35205,3.27087
1732390483076,-0.00390625,0.00390625,0,0,-2.0354,2.18588,-6.40872,0.0942707,-0.04144,1.2132,26.1411,8.60352,-0.56311
1732390483076,-0.00390625,0.00390625,0,0,-2.50887,1.89891,-6.13895,-0.00956059,-0.0436859,1.15766,8.56372,1.25598,11.3798
1732390483076,-0.00390625,0.00390625,0,0,-1.65349,1.26586,-5.74866,-0.0532389,-0.0623074,1.06845,-2.89661,-6.4845,7.27893
1732390483076,-0.00390625,0.00390625,0,0,-0.757233,0.752243,-5.53851,-0.0138979,-0.000700951,0.901161,-5.85693,1.06787,3.05847
1732390483076,-0.00390625,0.00390625,0,0,-0.828415,0.955276,-5.52104,0.0571766,0.0137596,0.872574,7.25598,-2.99207,0.892822
1732390483076,-0.00390625,0.00390625,0,0,-1.19196,1.30154,-5.23122,0.00456619,0.0223885,0.799477,6.84216,-1.47839,10.8447
1732390483076,-0.00390625,0.00390625,0,0,-1.55649,1.33067,-4.91797,-0.0220394,0.0693626,0.744102,13.4082,-1.39404,2.07776
1732390483076,-0.00390625,0.00390625,0,0,-2.35928,1.32681,-5.07483,0.00753593,0.0533409,0.80822,17.7708,-1.27405,-7.52576
1732390483076,-0.00390625,0.00390625,0,0,-2.90019,1.15571,-5.38274,0.00819778,0.0260677,0.926382,11.1816,1.53308,-8.69604
1732390483076,-0.00390625,0.00390625,0,0,-2.79172,0.986977,-5.79018,0.00847435,0.0104256,1.04876,2.48193,-3.1156,-12.9857
1732390483076,-0.00390625,0.00390625,0,0,-2.1653,1.14558,-6.49722,0.00977707,0.0064373,1.13185,-0.550171,-15.4418,-22.9011
1732390483076,-0.00390625,0.00390625,0,0,-2.24556,2.42265,-7.71326,0.0885868,0.0246582,1.10365,9.51526,-28.0183,-33.9598
1732390483076,-0.00390625,0.00390625,0,0,-2.26926,3.32638,-8.99152,0.098053,-0.0182285,1.202,-3.66541,-9.7644,-25.6172
1732390483076,-0.00390625,0.00390625,0,0,-1.52283,3.23001,-9.58676,0.00894547,0.0181923,1.02916,-9.31836,-2.23547,-11.8241
1732390483076,-0.00390625,0.00390625,0,0,-1.32733,3.74353,-10.2781,0.12953,0.0163441,1.05358,-3.58899,-13.8036,-19.7568
1732390483076,-0.00390625,0.00390625,0,0,-0.409225,4.67795,-10.8214,0.112757,-0.0220957,0.992666,-29.8029,-4.51392,-4.69946
1732390483076,-0.00390625,0.00390625,-0.000938892,-0.00500488,0.657715,4.23808,-10.6818,0.00727844,0.0766087,0.800825,-29.2256,10.3685,9.55554
1732390483076,-0.00390625,0.00390625,0,0,0.420898,3.45277,-10.4206,0.00804901,0.0649872,0.784754,6.55322,8.13916,6.20789
1732390483076,-0.00390625,0.00390625,0,0,-0.740479,3.22237,-10.2474,0.0456142,0.0527287,0.841349,30.74,1.02637,2.8512
1732390483076,-0.00390625,0.00390625,0,0,-2.2998,3.24479,-9.98187,0.0272598,0.103472,0.770544,33.7307,-3.06091,7.40747
1732390483076,-0.00390625,0,0,0,0,0,0,0,0,0,0,0,0
1732390483080,0.00390625,0,0,-4.12115,3.44881,-9.58533,0.0670261,0.0756073,0.890207,31.4686,-5.16797,12.3939,-0.00390625
1732390483080,0.00390625,0,0,-4.5162,3.7174,-8.80469,0.0278988,0.0217628,1.04581,7.59583,-3.94873,25.7974,-0.00390625
1732390483080,0.00390625,0,0,-3.46335,3.26105,-7.5795,0.00311089,-0.0283308,1.11892,-9.72083,-1.83411,33.5806,-0.00390625
1732390483080,0.00390625,0,0,-2.46216,2.60893,-6.14876,-0.0499268,0.0462284,1.01564,-4.10852,-8.02271,30.9489,-0.00390625
1732390483080,0.00390625,0,0,-2.30882,2.13249,-5.4377,0.0292034,-0.052042,1.1748,4.98987,-4.57617,10.3555,-0.00390625
1732390483080,0.00390625,0,0,-2.05946,2.29334,-4.8952,0.119102,-0.0805569,1.19743,-13.1848,-10.282,19.3252,-0.00390625
1732390483080,0.00390625,0,0,-0.728485,3.16006,-4.03796,0.0137539,-0.00512314,1.01693,-16.748,-30.682,19.7937,-0.00390625
1732390483080,0.00390625,0,0,-0.0137634,4.17348,-3.28111,0.0505733,-0.0211401,0.978405,-12.2833,-25.9249,21.1301,-0.00390625
1732390483080,0.00390625,0,0,0.404633,4.76309,-2.41054,0.081131,-0.00611305,0.991808,-5.12646,-17.3113,19.5057,-0.00390625
1732390483080,0.00390625,0,0,0.243851,5.33209,-1.76782,0.0545902,0.0177231,0.829018,9.0437,-14.526,14.0966,-0.00390625
1732390483080,0.00390625,0,0,-0.590729,5.47472,-1.29369,0.0920506,0.0482635,0.740118,25.5153,-0.275879,8.44409,-0.00390625
1732390483080,0.00390625,0,0,-1.89198,5.40508,-0.969604,0.0444832,0.0489616,0.758085,37.4436,5.10693,4.08057,-0.00390625
1732390483080,0.00390625,0,0,-2.99641,4.93007,-0.947647,0.0754261,0.0174522,0.790232,21.5411,14.3425,-5.58362,-0.00390625
1732390483080,0.00390625,0,0,-3.15009,4.53152,-1.42793,0.0767498,0.0678997,0.716223,2.8916,5.80139,-19.2445,-0.00390625
1732390483080,0.00390625,0,0,-3.55428,4.4636,-2.33777,0.0751915,0.0486107,0.65634,11.384,-1.57544,-23.7185,-0.00390625
1732390483080,0.00390625,0,0,-3.95766,4.18362,-3.21426,0.0852985,0.0639172,0.696669,7.69299,13.3002,-21.8158,-0.00390625
1732390483080,0.00390625,0,0,-4.03398,4.69759,-3.87201,0.0888882,0.00553703,0.865696,13.2017,-10.3518,-14.6028,-0.00390625
1732390483080,0.00390625,0,0,-3.08662,5.0774,-4.34695,0.0565357,-0.0327969,0.922945,-15.145,-13.7614,-10.0939,-0.00390625
1732390483080,0.00390625,0,0,-1.25836,5.48801,-4.5771,0.095192,-0.0216284,0.809895,-32.0857,-2.79102,0.699951,-0.00390625
1732390483080,0.00390625,0,0,0.553589,5.85766,-4.28189,0.0540581,-0.106275,0.806362,-23.0936,-2.44507,14.9241,-0.00390625
1732390483080,0.00390625,0,0,1.44952,5.86945,-3.56912,0.028223,-0.10583,0.757868,-14.0833,2.03796,20.241,-0.00390625
1732390483080,0.00390625,0,0,1.96666,5.50781,-2.73587,0.132696,-0.115209,0.801285,-5.66321,14.7335,24.9486,-0.00390625
1732390483080,0.00390625,0,0,3.80423,5.36007,-1.379,0.078846,-0.195817,0.825064,-8.19006,13.9945,36.7684,-0.00390625
1732390483080,0.00390625,0,0,4.97005,4.88513,-0.249176,0.0222816,-0.121192,0.70978,-9.83032,-0.287231,18.2776,-0.00390625
1732390483080,0.00390625,0,0,5.06822,4.67212,0.301163,0.0177727,-0.059083,0.687277,11.5197,9.24927,12.1987,-0.00390625
1732390483080,0.00390625,0,0,4.46925,3.617,0.729889,-0.0296888,-0.0895462,0.84309,23.9268,17.6274,5.34106,-0.00390625
1732390483080,0.00390625,0,0,4.16415,1.88761,0.766083,-0.0126152,-0.105404,0.930481,16.7622,28.5502,-0.896362,-0.00390625
1732390483080,0.00390625,0,0,4.6591,0.389282,0.781616,-0.0573406,-0.143573,1.00705,-0.392944,24.2777,2.51697,-0.00390625
1732390483080,0.00390625,0,0,5.2397,-1.00989,0.763931,-0.025053,-0.0937366,1.06486,-9.00916,25.3639,-1.88635,-0.00390625
1732390483080,0.00390625,0,0,4.99356,-1.80302,0.535202,0.00332451,-0.11366,1.16843,12.9945,18.8796,-5.56531,-0.00390625
1732390483080,0.00390625,0,0,4.27385,-2.35515,0.286636,-0.0287504,-0.214182,1.37866,15.6646,13.4855,-5.45667,-0.00390625
1732390483080,0.00390625,0,0,4.0766,-2.77282,0.00143433,0.0767059,-0.192512,1.37136,-6.58435,8.56665,-3.49866,-0.00390625
1732390483080,0.00390625,0,0,4.65468,-3.12584,0.2202,-0.0211859,-0.16776,1.35626,-15.2969,10.6819,10.871,-0.00390625
1732390483080,0.00390625,0,0,5.1701,-3.45136,0.791138,0.0312538,-0.133724,1.40658,-14.3455,2.1145,18.1722,-0.00390625
1732390483080,0.00390625,0,0,5.74287,-3.52895,1.60025,-0.0874739,-0.097064,1.42262,-17.901,1.83484,17.0879,-0.00390625
1732390483080,0.00390625,0,0,6.65466,-3.71105,2.01584,-0.0305891,-0.0551872,1.33077,-27.3638,3.34973,6.06055,-0.00390625
1732390483080,0.00390625,0,0,7.48381,-3.81007,2.2934,-0.0281096,-0.0628977,1.25943,-12.6826,-2.03333,5.5332,-0.00390625
1732390483080,0.00390625,0,0,7.92664,-3.57325,2.51666,-0.0281525,-0.0900497,1.2786,-15.6804,-7.3186,5.87109,-0.00390625
1732390483080,0.00390625,0,0,8.68634,-3.26962,2.76434,0.0278358,-0.0714617,1.22973,-20.4561,-10.3339,5.651,-0.00390625
1732390483080,0.00390625,0,0,8.98511,-2.50034,3.22107,-0.0156717,-0.0978374,1.14035,-19.2675,-10.2446,14.7352,-0.00390625
1732390483080,0.00390625,0,0,8.82898,-1.79049,3.74818,0.00644493,-0.0864487,1.05437,-11.7773,-8.651,9.26086,-0.00390625
1732390483080,0.00390625,0,0,8.2482,-1.90268,3.96606,-0.103991,-0.0537777,1.05877,-8.56812,-2.35608,-3.35583,-0.00390625
1732390483080,0.00390625,0,0,7.64348,-1.83243,3.43254,0.0161476,-0.0671377,0.983934,-0.952759,5.67102,-19.0393,-0.00390625
1732390483080,0.00390625,0,0,6.39153,-0.932701,2.66086,0.0637779,0.00184822,1.03882,9.91772,5.49219,-11.0133,-0.00390625
1732390483080,0.00390625,0,0,5.42255,-1.01801,2.41264,-0.159252,0.0515022,1.2451,-6.06055,8.50891,-5.94507,-0.00390625
1732390483080,0.00390625,0,0,4.17442,-1.26177,2.01172,-0.0168467,-0.012394,0.999746,0.900757,6.60156,-6.50671,-0.00390625
1732390483080,0.00585938,-0.000471115,0.0122242,3.91566,-1.53909,1.89729,-0.0148382,-0.0511436,0.963308,0.119019,4.38208,0.477051,-0.00390625
1732390483080,0.00585938,0,0,3.63762,-1.60151,1.97995,-0.0114832,-0.0318193,0.96784,-1.12817,7.54407,1.96741,-0.00390625
1732390483080,0.00585938,0,0,3.68237,-1.69939,1.9919,0.0105495,-0.0630989,0.912554,-6.99927,14.3976,1.3363,-0.00390625
1732390483080,0.00585938,0,0,4.58377,-2.46391,2.07916,-0.0461226,-0.0506697,0.962109,-29.4745,20.5968,1.16321,-0.00390625
1732390483080,0.00585938,0.000100613,-0.00282812,5.17273,-2.76645,2.11533,-0.037466,-0.295002,0.976637,19.4772,-3.12866,-2.86194,-0.00390625
1732390483080,0.00585938,-0.000936508,0.0253363,4.87466,-2.90729,2.18207,-0.00468636,-0.113145,0.811848,0.969604,-0.521118,0.376709,-0.00390625
1732390483080,0.00585938,0,0,4.87531,-2.71672,2.19258,-0.0678549,-0.0620508,1.03622,0.737671,0.176147,0,-0.00390625
1732390483080,0.00585938,0,0,4.62445,-2.74886,2.20158,-0.0421267,-0.077878,0.977474,-0.487305,-0.230225,0,-0.00390625
1732390483080,0.00585938,0,0,4.59415,-2.70674,2.20715,-0.0421686,-0.0817575,0.981342,-0.355103,0.261108,0,-0.00390625
1732390483080,0.00585938,0,0,4.42719,-2.70483,2.19679,-0.0472765,-0.0506916,0.997692,-0.432495,-0.0758057,-0.691528,-0.00390625
1732390483080,0.00585938,0,0,0,0,0,0,0,0,0,0,0,0
1732390483081,0,4.51399,-2.65078,2.20689,0.00689507,-0.0979433,0.927448,-1.24072,1.11694,0.891968,-0.00390625,0.00585938,0
1732390483081,0,4.79085,-2.65762,2.21362,-0.031292,-0.147891,1.0515,-0.963257,0.0748291,0.782959,-0.00390625,0.0078125,0
1732390483081,0,4.96425,-2.70213,2.26657,-0.0282364,-0.109179,1.05251,1.72375,-0.095459,1.54895,-0.00390625,0.0078125,-0.000284672
1732390483081,0.00723791,4.28748,-2.72537,2.28998,-0.0404387,0.0461407,0.964546,-1.90552,0.14209,-2.19617,-0.00390625,0.0078125,-0.00104713
1732390483081,0.0257821,3.66599,-2.7329,2.31654,-0.0518284,-0.0390081,1.00966,-0.171875,0.52124,-0.545044,-0.00390625,0.00976562,-0.0010848
1732390483081,0.0269346,3.75079,-2.68505,2.30487,-0.0462503,-0.0855808,0.989014,0.130859,0.118042,0,-0.00390625,0.00976562,0
1732390483081,0,3.89641,-2.65663,2.30563,-0.0505886,-0.0661354,0.989292,0.127319,-0.00158691,0,-0.00390625,0.00976562,0
1732390483081,0,3.84305,-2.64959,2.30643,-0.0465927,-0.0700722,0.989357,0.119873,-0.240967,0,-0.00390625,0.00976562,0
1732390483081,0,3.90157,-2.61554,2.30408,-0.038558,-0.0740652,0.985617,0.000244141,-0.11145,0,-0.00390625,0.00976562,0
1732390483081,0,3.89648,-2.60283,2.30371,-0.0428534,-0.062377,0.989677,-0.057251,0.0772705,0,-0.00390625,0.00976562,0
1732390483081,0,3.95351,-2.59328,2.30202,-0.0427675,-0.0662546,0.989592,0.0640869,0.00830078,0,-0.00390625,0.00976562,0
1732390483081,0,3.96492,-2.57822,2.30132,-0.0426817,-0.0701313,0.989506,-0.118042,0.012207,0,-0.00390625,0.00976562,0
1732390483081,0,3.95679,-2.56543,2.30127,-0.0428104,-0.0701342,0.99346,0.0032959,-0.0566406,0,-0.00390625,0.00976562,0
1732390483081,0,3.95679,-2.55371,2.30107,-0.0428953,-0.0662565,0.993546,0.000732422,-0.113403,0,-0.00390625,0.00976562,0
1732390483081,0,3.95868,-2.55901,2.30127,-0.0465498,-0.0661926,0.985487,0.0657959,0.0690918,0,-0.00390625,0.00976562,0
1732390483081,0,3.96753,-2.55153,2.30104,-0.0463362,-0.0700674,0.981449,-0.0587158,-0.0506592,0,-0.00390625,0.00976562,0
1732390483081,0,3.97488,-2.54583,2.30096,-0.046464,-0.0700693,0.985403,0.0570068,-0.297974,0,-0.00390625,0.00976562,0
1732390483081,0,3.98645,-2.53296,2.30025,-0.0427246,-0.0740108,0.993374,0.189819,0.124268,0,-0.00390625,0.00976562,0
1732390483081,0,3.99261,-2.53275,2.2999,-0.0468063,-0.0661974,0.993395,0.00695801,0.129883,0,-0.00390625,0.00976562,0
1732390483081,0,3.99492,-2.52858,2.29984,-0.0428953,-0.0662565,0.993546,0.119873,-0.240967,0,-0.00390625,0.00976562,0
1732390483081,0,3.99934,-2.53365,2.30011,-0.0505886,-0.0661354,0.989292,-0.0598145,-0.113647,0,-0.00390625,0.00976562,0
1732390483081,0,4.0069,-2.52744,2.29979,-0.0429382,-0.0701361,0.997414,-0.000366211,-0.176392,0,-0.00390625,0.00976562,0
1732390483081,0,4.01443,-2.53288,2.3,-0.0426817,-0.0701313,0.989506,-0.0577393,0.012207,0,-0.00390625,0.00976562,0
1732390483081,0,4.01958,-2.53058,2.29988,-0.0427675,-0.0662546,0.989592,-0.177979,0.0767822,0,-0.00390625,0.00976562,0
1732390483081,0,4.00291,-2.52977,2.30025,-0.0467205,-0.0700741,0.993309,-0.115967,0.0708008,0,-0.00390625,0.00976562,0
1732390483081,0,4.00836,-2.52841,2.30037,-0.0426817,-0.0701313,0.989506,0.00476074,0.0710449,0,-0.00390625,0.00976562,0
1732390483081,0,3.99524,-2.53828,2.30093,-0.0430241,-0.0662594,0.997499,0.0667725,0.13208,0,-0.00390625,0.00976562,0
1732390483081,0,3.99529,-2.54045,2.30093,-0.0463791,-0.073947,0.985317,-0.0045166,-0.360962,0,-0.00390625,0.00976562,0
1732390483081,0,3.992,-2.53149,2.30063,-0.0428534,-0.062377,0.989677,0.115601,-0.358643,0,-0.00390625,0.00976562,0
1732390483081,0,3.99297,-2.52741,2.30057,-0.0390711,-0.062439,0.99378,-0.174316,0.196411,0,-0.00390625,0.00976562,0
1732390483081,0,3.98781,-2.5154,2.3006,-0.0426817,-0.0701313,0.989506,-0.0645752,-0.229248,0,-0.00390625,0.00976562,0
1732390483081,0,3.97519,-2.51549,2.30112,-0.0426817,-0.0701313,0.989506,0.0584717,-0.170166,0,-0.00390625,0.00976562,0
1732390483081,0,3.98264,-2.5267,2.30165,-0.0468493,-0.0700769,0.997263,0.0640869,0.00830078,0,-0.00390625,0.00976562,0
1732390483081,0,3.98351,-2.51361,2.30164,-0.0427246,-0.0740108,0.993374,0.00219727,0.0142822,0,-0.00390625,0.00976562,0
1732390483081,0,3.98346,-2.51074,2.30147,-0.0428534,-0.062377,0.989677,0.123535,-0.0543213,0,-0.00390625,0.00976562,0
1732390483081,0,3.97505,-2.50342,2.30125,-0.0428104,-0.0701342,0.99346,0.185059,0.00854492,0,-0.00390625,0.00976562,0
1732390483081,0,3.98383,-2.49252,2.30104,-0.0426817,-0.0701313,0.989506,-0.0571289,0.0100098,0,-0.00390625,0.00976562,0
1732390483081,0,3.99973,-2.48586,2.30075,-0.0425539,-0.0701284,0.985552,0.0645752,0.00646973,0,-0.00390625,0.00976562,0
1732390483081,0,4.00061,-2.49198,2.30107,-0.0425968,-0.0740089,0.98942,0.000732422,-0.113403,0,-0.00390625,0.00976562,0
1732390483081,0,3.99406,-2.49364,2.30141,-0.0429811,-0.0623798,0.993631,0.0598145,-0.109253,0,-0.00390625,0.00976562,0
1732390483081,0,3.99283,-2.49969,2.30151,-0.0426817,-0.0701313,0.989506,0.0090332,0.188843,0,-0.00390625,0.00976562,0
1732390483081,0,4.00876,-2.48501,2.30067,-0.0426817,-0.0701313,0.989506,0.122559,-0.050293,0,-0.00390625,0.00976562,0
1732390483081,0,4.005,-2.49264,2.30118,-0.0428104,-0.0701342,0.99346,-0.0577393,0.012207,0,-0.00390625,0.00976562,0
1732390483081,0,4.00061,-2.495,2.30121,-0.0428953,-0.0662565,0.993546,-0.175415,0.133789,0,-0.00390625,0.00976562,0
1732390483081,0,4.00609,-2.48503,2.30107,-0.0426817,-0.0701313,0.989506,-0.0566406,0.0750732,0,-0.00390625,0.00976562,0
1732390483081,0,4.00768,-2.49776,2.30142,-0.0426817,-0.0701313,0.989506,-0.113403,0.19458,0,-0.00390625,0.00976562,0
1732390483081,0,3.99576,-2.50628,2.302,-0.0428104,-0.0701342,0.99346,0.0684814,0.126099,0,-0.00390625,0.00976562,0
1732390483081,0,3.98039,-2.50774,2.30249,-0.0428953,-0.0662565,0.993546,0.0627441,-0.0524902,0,-0.00390625,0.00976562,0
1732390483081,0,3.9814,-2.50848,2.30241,-0.043067,-0.0585022,0.993717,0.00219727,-0.0526123,0,-0.00390625,0.00976562,0
1732390483081,0,3.99597,-2.50194,2.302,-0.0425539,-0.0701284,0.985552,0.0635986,-0.0565186,0,-0.00390625,0.00976562,0
1732390483081,0,4.00362,-2.49639,2.3017,-0.0427246,-0.0740108,0.993374,0.0617676,-0.115356,0,-0.00390625,0.00976562,0
1732390483081,0,4.01477,-2.49637,2.30164,-0.0426388,-0.0662518,0.985638,-0.0592041,-0.0487061,0,-0.00390625,0.00976562,0
1732390483081,0,4.0219,-2.5036,2.30165,-0.0467205,-0.0700741,0.993309,0.119507,-0.239014,0,-0.00390625,0.00976562,0
1732390483081,0,4.01482,-2.50563,2.30217,-0.0465498,-0.0778284,0.993139,-0.0598145,-0.113647,0,-0.00390625,0.00976562,0
1732390483081,0,4.00537,-2.51228,2.30258,-0.0425539,-0.0701284,0.985552,0.0667725,0.13208,0,-0.00390625,0.00976562,0
1732390483081,0,3.99702,-2.52121,2.30312,-0.0428534,-0.062377,0.989677,-0.120728,-0.0447998,0,-0.00390625,0.00976562,0
1732390483081,0,3.99275,-2.51897,2.30322,-0.0466356,-0.0739517,0.993225,0.0617676,-0.115356,0,-0.00390625,0.00976562,0
1732390483081,0,3.99857,-2.52187,2.30334,-0.0426817,-0.0701313,0.989506,-0.000488281,-0.109375,0,-0.00390625,0.00976562,0
1732390483081,0,4.00108,-2.52049,2.30324,-0.0428104,-0.0701342,0.99346,-0.0560303,0.00622559,0,-0.00390625,0.00976562,0
1732390483081,0,3.99452,-2.5135,2.30321,-0.0425539,-0.0701284,0.985552,-0.120728,-0.111694,0,-0.00390625,0.00976562,0
1732390483081,0,3.99918,-2.5144,2.30321,-0.0428104,-0.0701342,0.99346,0.00549316,0.0690918,0,-0.00390625,0.00976562,0
1732390483081,0,3.99069,-2.52628,2.30386,-0.0505886,-0.0661354,0.989292,0.00427246,0.00622559,0,-0.00390625,0.00976562,0
1732390483081,0,3.99698,-2.53309,2.30389,-0.0467205,-0.0700741,0.993309,0.0635986,-0.0565186,0,-0.00390625,0.00976562,0
1732390483081,0,3.99059,-2.54214,2.30443,-0.0426817,-0.0701313,0.989506,-0.115967,0.0708008,0,-0.00390625,0.00976562,0
1732390483081,0,3.98804,-2.53288,2.30438,-0.0428953,-0.0662565,0.993546,-0.0598145,-0.0466309,0,-0.00390625,0.00976562,0
1732390483081,0,3.99579,-2.52433,2.30374,-0.0427246,-0.0740108,0.993374,0.0632324,-0.0544434,0,-0.00390625,0.00976562,0
1732390483081,0,3.98578,-2.52832,2.304,-0.0428534,-0.062377,0.989677,0.00378418,0.00830078,0,-0.00390625,0.00976562,0
1732390483081,0,3.96436,-2.51838,2.3044,-0.0427675,-0.0662546,0.989592,0.180664,-0.175903,0,-0.00390625,0.00976562,0
1732390483081,0,3.96538,-2.51555,2.30415,-0.0426817,-0.0701313,0.989506,-0.0561523,0.139893,0,-0.00390625,0.00976562,0
1732390483081,0,3.95772,-2.52953,2.30484,-0.046464,-0.0700693,0.985403,-0.116089,0.137817,0,-0.00390625,0.00976562,0
1732390483081,0,3.94997,-2.52136,2.30498,-0.0428534,-0.0740137,0.997328,-0.0560303,0.00622559,0,-0.00390625,0.00976562,0
1732390483081,0,3.95366,-2.52652,2.30496,-0.0465927,-0.0700722,0.989357,0.0593262,-0.174194,0,-0.00390625,0.00976562,0
1732390483081,0,3.97429,-2.51696,2.30426,-0.0427675,-0.0662546,0.989592,0.0650635,0.0712891,0,-0.00390625,0.00976562,0
1732390483081,0,3.97873,-2.5151,2.3044,-0.0426817,-0.0701313,0.989506,0.0640869,0.00830078,0,-0.00390625,0.00976562,0
1732390483081,0,3.98264,-2.51181,2.30438,-0.0426817,-0.0701313,0.989506,0.0598145,-0.109253,0,-0.00390625,0.00976562,0
1732390483081,0,3.99872,-2.50271,2.30396,-0.0428953,-0.0662565,0.993546,-0.117554,0.0100098,0,-0.00390625,0.00976562,0
1732390483081,0,4.00551,-2.49928,2.30389,-0.0468493,-0.0700769,0.997263,0.0635986,-0.0565186,0,-0.00390625,0.00976562,0
1732390483081,0,4.00836,-2.50476,2.30382,-0.0426817,-0.0701313,0.989506,0.124023,0.0107422,0,-0.00390625,0.00976562,0
1732390483081,0,4.01711,-2.4969,2.30334,-0.0429382,-0.0701361,0.997414,0.0032959,0.0102539,0,-0.00390625,0.00976562,0
1732390483081,0,4.0033,-2.49921,2.30374,-0.0428953,-0.0662565,0.993546,0.00280762,-0.0546875,0,-0.00390625,0.00976562,0
1732390483081,0,3.98808,-2.50387,2.30411,-0.0467205,-0.0700741,0.993309,0.00476074,0.0710449,0,-0.00390625,0.00976562,0
1732390483081,0,3.9904,-2.51147,2.30418,-0.0426817,-0.0701313,0.989506,-0.0550537,0.0688477,0,-0.00390625,0.00976562,0
1732390483081,0,4.00485,-2.50495,2.30344,-0.0426817,-0.0701313,0.989506,0.123047,-0.0523682,0,-0.00390625,0.00976562,0
1732390483081,0,4.00327,-2.50353,2.30371,-0.0427246,-0.0740108,0.993374,0.0635986,0.010498,0,-0.00390625,0.00976562,0
1732390483081,0,4.00677,-2.50504,0,0,0,0,0,0,0,0,0,0
1732390483083,2.30386,-0.0428104,-0.0701342,0.99346,0.0593262,-0.174194,0,-0.00390625,0.00976562,0,0,4.00732,-2.5079
1732390483083,2.30389,-0.0430241,-0.0662594,0.997499,-0.0566406,0.00805664,0,-0.00390625,0.00976562,0,0,3.99306,-2.51964
1732390483083,2.30458,-0.0469341,-0.0662003,0.997349,-0.118652,0.0140381,0,-0.00390625,0.00976562,0,0,3.99185,-2.51459
1732390483083,2.30438,-0.0426817,-0.0701313,0.989506,0.0570068,-0.297974,0,-0.00390625,0.00976562,0,0,3.98892,-2.52195
1732390483083,2.30458,-0.0429811,-0.0623798,0.993631,0.12085,-0.178101,0,-0.00390625,0.00976562,0,0,3.97838,-2.51305
1732390483083,2.30487,-0.0428953,-0.0662565,0.993546,0.0548096,-0.356812,0,-0.00390625,0.00976562,0,0,3.99379,-2.52345
1732390483083,2.30518,-0.0465069,-0.0739489,0.989271,-0.0598145,-0.0466309,0,-0.00390625,0.00976562,0,0,3.99399,-2.5162
1732390483083,2.30505,-0.0428534,-0.0740137,0.997328,0.0627441,-0.0524902,0,-0.00390625,0.00976562,0,0,4.00371,-2.52322
1732390483083,2.30553,-0.0463791,-0.073947,0.985317,0.00280762,-0.0546875,0,-0.00390625,0.00976562,0,0,3.97852,-2.51472
1732390483083,2.30577,-0.0429382,-0.0701361,0.997414,0.00219727,-0.0526123,0,-0.00390625,0.00976562,0,0,3.97957,-2.51717
1732390483083,2.30545,-0.0428953,-0.0662565,0.993546,-0.117554,0.0770264,0,-0.00390625,0.00976562,0,0,3.96584,-2.5132
1732390483083,2.3056,-0.0425968,-0.0740089,0.98942,-0.0561523,0.072998,0,-0.00390625,0.00976562,0,0,3.9753,-2.51228
1732390483083,2.30533,-0.0426817,-0.0701313,0.989506,0.000732422,-0.113403,0,-0.00390625,0.00976562,0,0,3.98758,-2.52123
1732390483083,2.30537,-0.0428953,-0.0662565,0.993546,-0.0539551,0.131836,0,-0.00390625,0.00976562,0,0,4.00739,-2.51663
1732390483083,2.30469,-0.0425968,-0.0740089,0.98942,0.0645752,0.00646973,0,-0.00390625,0.00976562,0,0,3.99796,-2.50252
1732390483083,2.30466,-0.0428953,-0.0662565,0.993546,0.0588379,-0.239136,0,-0.00390625,0.00976562,0,0,3.99956,-2.49834
1732390483083,2.30475,-0.0428534,-0.062377,0.989677,-0.116455,0.00598145,0,-0.00390625,0.00976562,0,0,3.98593,-2.4996
1732390483083,2.3049,-0.0424681,-0.0740061,0.985466,-0.052002,0.25769,0,-0.00390625,0.00976562,0,0,3.98718,-2.50195
1732390483083,2.30472,-0.0428953,-0.0662565,0.993546,-0.0550537,0.0688477,0,-0.00390625,0.00976562,0,0,3.98213,-2.4948
1732390483083,2.30466,-0.0428953,-0.0662565,0.993546,0.00427246,0.00622559,0,-0.00390625,0.00976562,0,0,3.98308,-2.49682
1732390483083,2.30476,-0.0425539,-0.0701284,0.985552,0.0012207,-0.048584,0,-0.00390625,0.00976562,0,0,3.99127,-2.49576
1732390483083,2.30472,-0.0428534,-0.062377,0.989677,-0.0566406,0.00805664,0,-0.00390625,0.00976562,0,0,4.00621,-2.49574
1732390483083,2.30418,-0.0427675,-0.0662546,0.989592,0.0584717,-0.170166,0,-0.00390625,0.00976562,0,0,4.00027,-2.49487
1732390483083,2.30432,-0.0427675,-0.0662546,0.989592,-0.0561523,0.072998,0,-0.00390625,0.00976562,0,0,4.00363,-2.49522
1732390483083,2.30432,-0.0427246,-0.0740108,0.993374,0.00378418,0.00830078,0,-0.00390625,0.00976562,0,0,4.01787,-2.49829
1732390483083,2.30402,-0.0426817,-0.0701313,0.989506,0.0579834,-0.234985,0,-0.00390625,0.00976562,0,0,3.99542,-2.49902
1732390483083,2.30472,-0.0426817,-0.0701313,0.989506,0.0579834,-0.234985,0,-0.00390625,0.00976562,0,0,3.9994,-2.49825
1732390483083,2.30466,-0.0428104,-0.0701342,0.99346,0.0627441,-0.0524902,0,-0.00390625,0.00976562,0,0,4.00499,-2.50172
1732390483083,2.30476,-0.0427675,-0.0662546,0.989592,0.123047,-0.119263,0,-0.00390625,0.00976562,0,0,4.00497,-2.51098
1732390483083,2.30527,-0.0468493,-0.0700769,0.997263,-0.00561523,-0.356934,0,-0.00390625,0.00976562,0,0,4.00653,-2.50597
1732390483083,2.30505,-0.0465498,-0.0661926,0.985487,0.0627441,-0.0524902,0,-0.00390625,0.00976562,0,0,4.00757,-2.51546
1732390483083,2.3053,-0.0425539,-0.0701284,0.985552,0.12561,0.0045166,0,-0.00390625,0.00976562,0,0,3.98936,-2.51305
1732390483083,2.30565,-0.0428953,-0.0662565,0.993546,-0.0550537,0.135864,0,-0.00390625,0.00976562,0,0,3.98813,-2.50557
1732390483083,2.3058,-0.0425539,-0.0701284,0.985552,0.0610352,-0.113281,0,-0.00390625,0.00976562,0,0,3.98404,-2.51485
1732390483083,2.30612,-0.0428104,-0.0701342,0.99346,0.00219727,-0.0526123,0,-0.00390625,0.00976562,0,0,3.97578,-2.52332
1732390483083,2.30655,-0.0428104,-0.0701342,0.99346,0.186646,0.00256348,0,-0.00390625,0.00976562,0,0,3.98842,-2.51955
1732390483083,2.30627,-0.0427246,-0.0623741,0.985723,-0.181152,-0.0449219,0,-0.00390625,0.00976562,0,0,3.98286,-2.52663
1732390483083,2.30681,-0.0427675,-0.0662546,0.989592,0.0617676,-0.115356,0,-0.00390625,0.00976562,0,0,3.96774,-2.52262
1732390483083,2.30692,-0.0425539,-0.0701284,0.985552,-0.118652,0.0140381,0,-0.00390625,0.00976562,0,0,3.97089,-2.521
1732390483083,2.3069,-0.0469341,-0.0662003,0.997349,-0.000976562,-0.107422,0,-0.00390625,0.00976562,0,0,3.97099,-2.5216
1732390483083,2.3069,-0.0426817,-0.0701313,0.989506,0.0617676,-0.115356,0,-0.00390625,0.00976562,0,0,3.98163,-2.5124
1732390483083,2.30612,-0.0426817,-0.0701313,0.989506,-0.0539551,0.131836,0,-0.00390625,0.00976562,0,0,4.00847,-2.51006
1732390483083,2.3056,-0.0466356,-0.0739517,0.993225,-0.0550537,0.0688477,0,-0.00390625,0.00976562,0,0,4.00246,-2.51299
1732390483083,2.30585,-0.0425968,-0.0740089,0.98942,0.0600586,-0.17627,0,-0.00390625,0.00976562,0,0,3.99866,-2.52345
1732390483083,2.30621,-0.0428953,-0.0662565,0.993546,-0.115479,0.0688477,0,-0.00390625,0.00976562,0,0,3.9969,-2.51758
1732390483083,2.30612,-0.0427675,-0.0662546,0.989592,-0.117065,0.0748291,0,-0.00390625,0.00976562,0,0,4.01158,-2.51749
1732390483083,2.30597,-0.0426817,-0.0701313,0.989506,-0.117554,0.0100098,0,-0.00390625,0.00976562,0,0,4.01494,-2.51803
1732390483083,2.30591,-0.0425968,-0.0740089,0.98942,0.00549316,0.0690918,0,-0.00390625,0.00976562,0,0,3.99879,-2.52541
1732390483083,2.30638,-0.0430241,-0.0662594,0.997499,0.0112305,0.247681,0,-0.00390625,0.00976562,0,0,4.00336,-2.52129
1732390483083,2.30612,-0.0428534,-0.062377,0.989677,-0.000488281,-0.109375,0,-0.00390625,0.00976562,0,0,4.01115,-2.5171
1732390483083,2.30585,-0.0427675,-0.0662546,0.989592,-0.0598145,-0.113647,0,-0.00390625,0.00976562,0,0,4.00536,-2.52778
1732390483083,2.30635,-0.0427675,-0.0662546,0.989592,0.0012207,-0.048584,0,-0.00390625,0.00976562,0,0,4.0304,-2.52299
1732390483083,2.30588,-0.0465069,-0.0739489,0.989271,-0.118164,0.0788574,0,-0.00390625,0.00976562,0,0,4.02734,-2.52225
1732390483083,2.30595,-0.0427675,-0.0662546,0.989592,0.00219727,-0.0526123,0,-0.00390625,0.00976562,0,0,4.01218,-2.52394
1732390483083,2.30597,-0.0425539,-0.0701284,0.985552,0.0684814,0.192871,0,-0.00390625,0.00976562,0,0,3.99771,-2.52087
1732390483083,2.30614,-0.0466776,-0.0661945,0.989441,0.00549316,0.0690918,0,-0.00390625,0.00976562,0,0,4.00516,-2.53201
1732390483083,2.30618,-0.0427675,-0.0662546,0.989592,0.0679932,0.128052,0,-0.00390625,0.00976562,0,0,4.00677,-2.5304
1732390483083,2.30577,-0.0468493,-0.0700769,0.997263,-0.0623779,-0.17041,0,-0.00390625,0.00976562,0,0,4.00316,-2.52646
1732390483083,2.30603,-0.0424681,-0.0740061,0.985466,0.122559,-0.117188,0,-0.00390625,0.00976562,0,0,3.99605,-2.51631
1732390483083,2.30609,-0.0431089,-0.0623817,0.997585,-0.0550537,0.135864,0,-0.00390625,0.00976562,0,0,3.99994,-2.51305
1732390483083,2.30598,-0.0426388,-0.0662518,0.985638,0.00598145,0.0672607,0,-0.00390625,0.00976562,0,0,3.99467,-2.5198
1732390483083,2.30656,-0.0428953,-0.0662565,0.993546,0.00219727,-0.0526123,0,-0.00390625,0.00976562,0,0,3.9894,-2.51936
1732390483083,2.30693,-0.0426817,-0.0701313,0.989506,-0.0618896,-0.172485,0,-0.00390625,0.00976562,0,0,3.9809,-2.51056
1732390483083,2.30711,-0.0425968,-0.0740089,0.98942,-0.000488281,-0.109375,0,-0.00390625,0.00976562,0,0,3.98232,-2.51836
1732390483083,2.30746,-0.0425539,-0.0701284,0.985552,0.00646973,0.13208,0,-0.00390625,0.00976562,0,0,3.99178,-2.53063
1732390483083,2.30777,-0.0426817,-0.0701313,0.989506,-0.000488281,-0.109375,0,-0.00390625,0.00976562,0,0,4.00984,-2.53448
1732390483083,2.30765,-0.0426817,-0.0701313,0.989506,-0.0571289,0.0100098,0,-0.00390625,0.00976562,0,0,4.02603,-2.53745
1732390483083,2.30769,-0.0465069,-0.0739489,0.989271,0.121826,-0.115234,0,-0.00390625,0.00976562,0,0,4.02145,-2.52769
1732390483083,2.30775,-0.0428104,-0.0701342,0.99346,0.0012207,-0.048584,0,-0.00390625,0.00976562,0,0,4.02545,-2.52294
1732390483083,2.30759,-0.0466776,-0.0661945,0.989441,-0.00561523,-0.09021,0,-0.00390625,0.00976562,0,0,4.01794,-2.52892
1732390483083,2.30769,-0.0429382,-0.0701361,0.997414,0.0545654,-0.0231934,0,-0.00390625,0.00976562,0,0,4.01993,-2.51698
1732390483083,2.30713,-0.0425968,-0.0740089,0.98942,-0.00402832,-0.0294189,0,-0.00390625,0.00976562,0,0,4.01201,-2.53687
1732390483083,2.30791,-0.0463362,-0.0700674,0.981449,-0.0639648,0.102539,0,-0.00390625,0.00976562,0,0,4.00806,-2.53357
1732390483083,2.30751,-0.042511,-0.0662489,0.981684,-0.00195312,0.0963135,0,-0.00390625,0.00976562,0,0,4.0119,-2.53166
1732390483083,2.30734,-0.0428104,-0.0701342,0.99346,0.0588379,0.0943604,0,-0.00390625,0.00976562,0,0,3.99596,-2.52445
1732390483083,2.30745,-0.0427675,-0.0662546,0.989592,-0.0571289,0.34375,0,-0.00390625,0.00976562,0,0,4.00394,-2.53112
1732390483083,2.3075,-0.0427675,-0.0662546,0.989592,-0.00671387,-0.0861816,0,-0.00390625,0.00976562,0,0,4.0052,-2.53396
1732390483083,2.30756,-0.0427675,-0.0662546,0.989592,0.0557861,-0.0941162,0,-0.00390625,0.00976562,0,0,4.00667,-2.51986
