time,pitch,roll,yaw,ax,ay,az,gx,gy,gz,x,y,vx,vy
1732389384168,3.71661,-2.84501,-132.899,-0.054285,-0.0699511,0.985102,-0.00537109,-0.0935059,0,-0.00195312,0.00195312,0,0
1732389384208,3.72115,-2.83035,-132.899,-0.0468922,-0.0623198,0.993481,-0.000244141,0.154053,0,-0.00195312,0.00195312,0,0
1732389384277,3.72316,-2.8289,-132.899,-0.0466776,-0.0661945,0.989441,-0.065918,-0.0267334,0,-0.00195312,0.00195312,0,0
1732389384341,3.72363,-2.82407,-132.899,-0.0544987,-0.0660763,0.989141,-0.00488281,-0.0285645,0,-0.00195312,0.00195312,0,0
1732389384341,3.73917,-2.83361,-132.899,-0.0468063,-0.0661974,0.993395,0.173828,-0.218872,0,-0.00195312,0.00195312,0,0
1732389384396,3.73328,-2.84177,-132.899,-0.0466776,-0.0661945,0.989441,0.0577393,0.0302734,0,-0.00195312,0.00195312,0,0
1732389384459,3.72919,-2.85921,-132.898,-0.0506315,-0.070015,0.99316,-0.0637207,0.0322266,0,-0.00195312,0.00195312,0,0
1732389384459,3.72569,-2.83629,-132.898,-0.0504599,-0.0661335,0.985338,-0.00805664,-0.217285,0,-0.00195312,0.00195312,0,0
1732389384525,3.72353,-2.82661,-132.899,-0.0467634,-0.0623178,0.989527,-0.0654297,0.0380859,0,-0.00195312,0.00195312,0,0
1732389384587,3.71512,-2.8224,-132.898,-0.0468922,-0.0623198,0.993481,0.114868,-0.158203,0,-0.00195312,0.00195312,0,0
1732389384587,3.71971,-2.83022,-132.898,-0.0467634,-0.0623178,0.989527,0.0545654,-0.158325,0,-0.00195312,0.00195312,0,0
1732389384649,3.72289,-2.8331,-132.898,-0.0510588,-0.0622654,1.00124,-0.0637207,-0.03479,0,-0.00195312,0.00195312,0,0
1732389384708,3.71999,-2.84877,-132.898,-0.0546274,-0.0660791,0.993095,-0.00695801,-0.154419,0,-0.00195312,0.00195312,0,0
1732389384708,3.71141,-2.85772,-132.897,-0.0508022,-0.0622606,0.99333,-0.0595703,0.216675,0,-0.00195312,0.00195312,0,0
1732389384770,3.69931,-2.86319,-132.897,-0.0506744,-0.0622587,0.989378,0.055542,-0.095459,0,-0.00195312,0.00195312,0,0
1732389384770,3.71347,-2.86279,-132.897,-0.0468063,-0.0661974,0.993395,-0.114746,0.397217,0,-0.00195312,0.00195312,0,0
1732389384833,3.7168,-2.86444,-132.897,-0.0467634,-0.0623178,0.989527,0.0585938,0.0932617,0,-0.00195312,0.00195312,0,0
1732389384895,3.69279,-2.84575,-132.897,-0.0467205,-0.0584383,0.985659,-0.0090332,-0.213257,0,-0.00195312,0.00195312,0,0
1732389384895,3.71144,-2.85873,-132.897,-0.0467634,-0.0623178,0.989527,0.0629883,0.21106,0,-0.00195312,0.00195312,0,0
1732389384958,3.72063,-2.84624,-132.898,-0.0507164,-0.0545015,0.985594,-0.125244,-0.0308838,0,-0.00195312,0.00195312,0,0
1732389385021,3.7169,-2.83947,-132.898,-0.0506744,-0.0622587,0.989378,-0.00280762,0.0302734,0,-0.00195312,0.00195312,0,0
1732389385021,3.72293,-2.84029,-132.898,-0.0546703,-0.0699587,0.996964,-0.000732422,0.0891113,0,-0.00195312,0.00195312,0,0
1732389385086,3.71222,-2.83838,-132.897,-0.0504599,-0.0661335,0.985338,-0.0684814,-0.0834961,0,-0.00195312,0.00195312,0,0
1732389385151,3.70798,-2.85651,-132.896,-0.0584526,-0.0582609,0.985209,-0.129883,-0.213501,0,-0.00195312,0.00195312,0,0
1732389385151,3.71025,-2.85396,-132.897,-0.0465498,-0.0661926,0.985487,-0.00378418,-0.0327148,0,-0.00195312,0.00195312,0,0
1732389385210,3.7061,-2.85548,-132.897,-0.0468493,-0.0584402,0.989613,-0.0126953,-0.0827637,0,-0.00195312,0.00195312,0,0
1732389385210,3.72058,-2.85529,-132.897,-0.0468922,-0.0623198,0.993481,-0.0710449,0.0429688,0,-0.00195312,0.00195312,0,0
1732389385272,3.71249,-2.87273,-132.896,-0.0508022,-0.0622606,0.99333,-0.00842285,0.03479,0,-0.00195312,0.00195312,0,0
1732389385338,3.71997,-2.86457,-132.897,-0.0466776,-0.0661945,0.989441,-0.0683594,0.0996094,0,-0.00195312,0.00195312,0,0
1732389385338,3.70273,-2.88548,-132.896,-0.0584526,-0.0698967,0.992859,0.0482178,-0.0845947,0,-0.00195312,0.00195312,0,0
1732389385394,3.7202,-2.86758,-132.897,-0.0465498,-0.0661926,0.985487,0.0510254,-0.027832,0,-0.00195312,0.00195312,0,0
1732389385457,3.72572,-2.85045,-132.898,-0.0462933,-0.0661879,0.977581,-0.0142822,-0.143677,0,-0.00195312,0.00195312,0,0
1732389385457,3.73204,-2.83627,-132.898,-0.0510159,-0.0583858,0.99737,-0.134033,-0.0810547,0,-0.00195312,0.00195312,0,0
1732389385518,3.73508,-2.84338,-132.898,-0.0506315,-0.0583792,0.98551,0.113525,0.0980225,0,-0.00195312,0.00195312,0,0
1732389385582,3.73888,-2.84677,-132.899,-0.0468063,-0.0661974,0.993395,-0.0637207,0.282227,0,-0.00195312,0.00195312,0,0
1732389385582,3.75891,-2.86952,-132.898,-0.0507164,-0.0661383,0.993246,0.0483398,-0.151611,0,-0.00195312,0.00195312,0,0
1732389385645,3.75189,-2.86196,-132.899,-0.0467205,-0.0700741,0.993309,0.0498047,-0.0238037,0,-0.00195312,0.00195312,0,0
1732389385706,3.74519,-2.8648,-132.898,-0.0508881,-0.0583839,0.993416,0.0515137,0.0372314,0,-0.00195312,0.00195312,0,0
1732389385706,3.75543,-2.87064,-132.898,-0.0507593,-0.0583811,0.989462,0.0510254,-0.027832,0,-0.00195312,0.00195312,0,0
1732389385769,3.75517,-2.85909,-132.899,-0.0546274,-0.0660791,0.993095,-0.00744629,0.0977783,0,-0.00195312,0.00195312,0,0
1732389385769,3.74707,-2.86433,-132.899,-0.0428534,-0.062377,0.989677,-0.0111084,-0.0218506,0,-0.00195312,0.00195312,0,0
1732389385830,3.74318,-2.89055,-132.898,-0.0546274,-0.0660791,0.993095,-0.0662842,0.225586,0,-0.00195312,0.00195312,0,0
1732389385894,3.74554,-2.88142,-132.898,-0.0547552,-0.066081,0.997049,-0.126221,0.223145,0,-0.00195312,0.00195312,0,0
1732389385894,3.73372,-2.89147,-132.898,-0.0504599,-0.0661335,0.985338,0.166382,-0.20813,0,-0.00195312,0.00195312,0,0
1732389385956,3.74374,-2.87321,-132.898,-0.0507593,-0.0583811,0.989462,-0.0657959,0.223389,0,-0.00195312,0.00195312,0,0
1732389386018,3.73819,-2.87742,-132.898,-0.0466776,-0.0661945,0.989441,-0.0668945,0.227417,0,-0.00195312,0.00195312,0,0
1732389386018,3.72404,-2.87228,-132.898,-0.0507593,-0.0583811,0.989462,-0.0740967,-0.145752,0,-0.00195312,0.00195312,0,0
1732389386079,3.73172,-2.85125,-132.899,-0.0544987,-0.0660763,0.989141,-0.0725098,-0.0849609,0,-0.00195312,0.00195312,0,0
1732389386142,3.72493,-2.83292,-132.899,-0.0466356,-0.0739517,0.993225,0.0488281,-0.0866699,0,-0.00195312,0.00195312,0,0
1732389386142,3.71169,-2.82931,-132.899,-0.0468922,-0.0623198,0.993481,-0.188721,0.164307,0,-0.00195312,0.00195312,0,0
1732389386209,3.73309,-2.82922,-132.9,-0.0505886,-0.0661354,0.989292,-0.0699463,0.0388184,0,-0.00195312,0.00195312,0,0
1732389386265,3.72531,-2.83097,-132.9,-0.0503321,-0.0661306,0.981384,-0.0710449,0.0429688,0,-0.00195312,0.00195312,0,0
1732389386265,3.72774,-2.8243,-132.9,-0.0506315,-0.0583792,0.98551,0.0482178,-0.0845947,0,-0.00195312,0.00195312,0,0
1732389386327,3.73718,-2.84389,-132.9,-0.0580673,-0.0698891,0.980999,0.0482178,-0.0845947,0,-0.00195312,0.00195312,0,0
1732389386389,3.73576,-2.85293,-132.9,-0.0506315,-0.070015,0.99316,-0.069458,0.0367432,0,-0.00195312,0.00195312,0,0
1732389386389,3.74487,-2.84932,-132.9,-0.0508881,-0.0583839,0.993416,-0.010498,-0.0909424,0,-0.00195312,0.00195312,0,0
1732389386451,3.7532,-2.85294,-132.9,-0.0506744,-0.0622587,0.989378,-0.126709,0.225342,0,-0.00195312,0.00195312,0,0
1732389386451,3.74654,-2.84276,-132.9,-0.0507164,-0.0661383,0.993246,-0.00952148,0.0388184,0,-0.00195312,0.00195312,0,0
1732389386513,3.75235,-2.86021,-132.9,-0.0469341,-0.0545635,0.989698,-0.0736084,-0.0809326,0,-0.00195312,0.00195312,0,0
1732389386581,3.7581,-2.84754,-132.901,-0.0464211,-0.0661898,0.981535,0.0567627,0.284424,0,-0.00195312,0.00195312,0,0
1732389386581,3.74812,-2.84422,-132.901,-0.0429811,-0.0623798,0.993631,-0.00793457,0.0998535,0,-0.00195312,0.00195312,0,0
1732389386639,3.7448,-2.84969,-132.901,-0.0506315,-0.070015,0.99316,0.0529785,0.0980225,0,-0.00195312,0.00195312,0,0
1732389386700,3.72974,-2.84204,-132.901,-0.0507164,-0.0661383,0.993246,-0.074707,-0.143799,0,-0.00195312,0.00195312,0,0
1732389386700,3.72269,-2.83862,-132.9,-0.046464,-0.0700693,0.985403,0.113525,0.0980225,0,-0.00195312,0.00195312,0,0
1732389386760,3.73642,-2.86073,-132.9,-0.0501614,-0.073885,0.981213,0.0445557,-0.204346,0,-0.00195312,0.00195312,0,0
1732389386823,3.73534,-2.86485,-132.9,-0.046977,-0.0584431,0.993567,-0.0657959,0.223389,0,-0.00195312,0.00195312,0,0
1732389386823,3.74863,-2.86398,-132.9,-0.05093,-0.0622635,0.997284,0.052002,0.0350342,0,-0.00195312,0.00195312,0,0
1732389386884,3.72537,-2.87231,-132.899,-0.0506315,-0.0583792,0.98551,-0.0090332,0.0369873,0,-0.00195312,0.00195312,0,0
1732389386946,3.73431,-2.87154,-132.9,-0.046464,-0.0700693,0.985403,-0.0710449,-0.0240479,0,-0.00195312,0.00195312,0,0
1732389386946,3.74612,-2.87663,-132.9,-0.0505886,-0.0661354,0.989292,-0.129272,0.101562,0,-0.00195312,0.00195312,0,0
1732389387009,3.71057,-2.86543,-132.9,-0.0426817,-0.0701313,0.989506,-0.0142822,-0.0766602,0,-0.00195312,0.00195312,0,0
1732389387071,3.70567,-2.86491,-132.899,-0.0428104,-0.0584974,0.985809,-0.00952148,0.0388184,0,-0.00195312,0.00195312,0,0
1732389387071,3.70906,-2.86045,-132.899,-0.0508022,-0.0622606,0.99333,-0.0106201,-0.0239258,0,-0.00195312,0.00195312,0,0
1732389387137,3.71449,-2.87218,-132.899,-0.0424681,-0.0740061,0.985466,0.0515137,-0.0299072,0,-0.00195312,0.00195312,0,0
1732389387232,3.71278,-2.87673,-132.899,-0.05093,-0.0622635,0.997284,0.0488281,-0.0866699,0,-0.00195312,0.00195312,0,0
1732389387232,3.70526,-2.86842,-132.899,-0.0587521,-0.0621452,0.996984,-0.012207,-0.0848389,0,-0.00195312,0.00195312,0,0
1732389387232,3.70433,-2.8651,-132.899,-0.0624056,-0.0620804,0.988928,-0.192871,-0.0202637,0,-0.00195312,0.00195312,0,0
1732389387295,3.72058,-2.85934,-132.9,-0.0469341,-0.0662003,0.997349,0.163818,-0.331909,0,-0.00195312,0.00195312,0,0
1732389387352,3.71878,-2.84496,-132.9,-0.0427675,-0.0546179,0.981941,-0.0626221,0.345215,0,-0.00195312,0.00195312,0,0
1732389387352,3.73582,-2.8374,-132.901,-0.054328,-0.0621948,0.981319,0.0515137,0.0372314,0,-0.00195312,0.00195312,0,0
1732389387421,3.73212,-2.83185,-132.901,-0.046977,-0.0584431,0.993567,-0.129883,0.10376,0,-0.00195312,0.00195312,0,0
1732389387475,3.75684,-2.82033,-132.902,-0.0547552,-0.066081,0.997049,-0.00744629,0.0977783,0,-0.00195312,0.00195312,0,0
1732389387475,3.75174,-2.83334,-132.901,-0.0508881,-0.0583839,0.993416,-0.0704346,0.0410156,0,-0.00195312,0.00195312,0,0
1732389387538,3.75644,-2.82282,-132.901,-0.0507164,-0.0661383,0.993246,0.0435791,-0.267212,0,-0.00195312,0.00195312,0,0
1732389387538,3.77025,-2.83363,-132.902,-0.0465927,-0.0700722,0.989357,0.0424805,-0.263184,0,-0.00195312,0.00195312,0,0
1732389387598,3.75716,-2.83903,-132.901,-0.0469341,-0.0662003,0.997349,-0.18396,0.346924,0,-0.00195312,0.00195312,0,0
1732389387661,3.76653,-2.85643,-132.901,-0.0465069,-0.0739489,0.989271,-0.0106201,-0.0239258,0,-0.00195312,0.00195312,0,0
1732389387661,3.75917,-2.8503,-132.901,-0.0545416,-0.05832,0.985359,0.109253,-0.0865479,0,-0.00195312,0.00195312,0,0
1732389387723,3.74565,-2.83182,-132.902,-0.0426817,-0.0701313,0.989506,0.052002,0.102051,0,-0.00195312,0.00195312,0,0
1732389387786,3.74121,-2.82706,-132.902,-0.0429811,-0.0623798,0.993631,0.110107,-0.0905762,0,-0.00195312,0.00195312,0,0
1732389387786,3.73122,-2.8094,-132.902,-0.0468063,-0.0661974,0.993395,-0.0772705,-0.200562,0,-0.00195312,0.00195312,0,0
1732389387849,3.73309,-2.82275,-132.902,-0.0467205,-0.0584383,0.985659,-0.0090332,0.0369873,0,-0.00195312,0.00195312,0,0
1732389387850,3.72728,-2.82391,-132.902,-0.0506744,-0.0622587,0.989378,-0.0111084,-0.0218506,0,-0.00195312,0.00195312,0,0
1732389387911,3.73737,-2.83153,-132.902,-0.0430241,-0.0662594,0.997499,0.111816,-0.0297852,0,-0.00195312,0.00195312,0,0
1732389387974,3.71857,-2.84801,-132.901,-0.0505028,-0.070013,0.989206,0.108765,-0.151489,0,-0.00195312,0.00195312,0,0
1732389387974,3.68456,-2.84047,-132.9,-0.0505886,-0.0661354,0.989292,-0.0673828,0.162598,0,-0.00195312,0.00195312,0,0
1732389388037,3.71729,-2.83083,-132.901,-0.0505028,-0.070013,0.989206,0.0524902,0.032959,0,-0.00195312,0.00195312,0,0
1732389388099,3.71597,-2.83681,-132.901,-0.0545845,-0.0621996,0.989227,0.166382,-0.275146,0,-0.00195312,0.00195312,0,0
1732389388099,3.73138,-2.82473,-132.902,-0.0508451,-0.0661402,0.997198,0.050293,-0.0258789,0,-0.00195312,0.00195312,0,0
1732389388162,3.731,-2.81747,-132.902,-0.0507593,-0.0700178,0.997114,0.052002,0.0350342,0,-0.00195312,0.00195312,0,0
1732389388224,3.72842,-2.82445,-132.902,-0.0505886,-0.0661354,0.989292,-0.0725098,-0.0849609,0,-0.00195312,0.00195312,0,0
1732389388224,3.73407,-2.84772,-132.901,-0.0547552,-0.066081,0.997049,0.0510254,0.0390625,0,-0.00195312,0.00195312,0,0
1732389388293,3.72256,-2.85332,-132.901,-0.0468922,-0.0623198,0.993481,-0.130859,0.0407715,0,-0.00195312,0.00195312,0,0
1732389388293,3.73647,-2.84571,-132.901,-0.0505886,-0.0661354,0.989292,0.0515137,0.0372314,0,-0.00195312,0.00195312,0,0
1732389388350,3.74857,-2.84544,-132.902,-0.0546274,-0.0660791,0.993095,-0.00683594,0.0955811,0,-0.00195312,0.00195312,0,0
1732389388413,3.73653,-2.84534,-132.901,-0.0504599,-0.0661335,0.985338,0.0462646,-0.210449,0,-0.00195312,0.00195312,0,0
1732389388475,3.71434,-2.84855,-132.901,-0.0424681,-0.0623693,0.977816,0.10437,-0.269165,0,-0.00195312,0.00195312,0,0
1732389388475,3.71257,-2.8478,-132.9,-0.0506744,-0.0622587,0.989378,-0.129272,0.0345459,0,-0.00195312,0.00195312,0,0
1732389388537,3.72156,-2.83778,-132.901,-0.0504179,-0.062254,0.98147,-0.0720215,-0.0869141,0,-0.00195312,0.00195312,0,0
1732389388537,3.7074,-2.84132,-132.901,-0.0428104,-0.0701342,0.99346,0.0467529,-0.145508,0,-0.00195312,0.00195312,0,0
1732389388603,3.72226,-2.81979,-132.902,-0.0430241,-0.0662594,0.997499,0.106079,-0.208252,0,-0.00195312,0.00195312,0,0
1732389388661,3.72662,-2.79536,-132.902,-0.0466776,-0.0661945,0.989441,-0.00793457,0.0998535,0,-0.00195312,0.00195312,0,0
1732389388661,3.72195,-2.79521,-132.902,-0.0506744,-0.0622587,0.989378,0.050293,-0.0258789,0,-0.00195312,0.00195312,0,0
1732389388742,3.73019,-2.8268,-132.902,-0.0547132,-0.0622015,0.993181,-0.0720215,-0.0200195,0,-0.00195312,0.00195312,0,0
1732389388742,3.7444,-2.82993,-132.902,-0.0507164,-0.0661383,0.993246,-0.0699463,0.0388184,0,-0.00195312,0.00195312,0,0
1732389388801,3.73843,-2.83479,-132.901,-0.0546274,-0.0660791,0.993095,0.111084,0.0390625,0,-0.00195312,0.00195312,0,0
1732389388864,3.72092,-2.84664,-132.901,-0.0465927,-0.0700722,0.989357,0.059082,0.341431,0,-0.00195312,0.00195312,0,0
1732389388864,3.7323,-2.84833,-132.901,-0.0471058,-0.0584459,0.99752,0.0524902,0.032959,0,-0.00195312,0.00195312,0,0
1732389388925,3.7272,-2.85281,-132.901,-0.0546274,-0.0660791,0.993095,0.0510254,0.0390625,0,-0.00195312,0.00195312,0,0
1732389388993,3.74147,-2.85248,-132.901,-0.0425539,-0.0701284,0.985552,-0.0158691,-0.204468,0,-0.00195312,0.00195312,0,0
1732389388993,3.73117,-2.8438,-132.901,-0.0510588,-0.0622654,1.00124,-0.128296,0.0975342,0,-0.00195312,0.00195312,0,0
1732389389050,3.72427,-2.84071,-132.901,-0.0506744,-0.0622587,0.989378,-0.0090332,0.0369873,0,-0.00195312,0.00195312,0,0
1732389389113,3.74622,-2.83846,-132.901,-0.0544987,-0.0660763,0.989141,-0.00378418,0.284424,0,-0.00195312,0.00195312,0,0
1732389389113,3.71477,-2.84308,-132.9,-0.0465927,-0.0700722,0.989357,0.0429688,-0.265259,0,-0.00195312,0.00195312,0,0
1732389389176,3.72702,-2.83713,-132.901,-0.0543709,-0.0660744,0.985188,-0.0710449,-0.0240479,0,-0.00195312,0.00195312,0,0
1732389389176,3.75127,-2.85344,-132.9,-0.0622778,-0.0620785,0.984974,-0.0736084,-0.0809326,0,-0.00195312,0.00195312,0,0
1732389389238,3.7795,-2.84369,-132.901,-0.0505028,-0.070013,0.989206,-0.012207,-0.0178223,0,-0.00195312,0.00195312,0,0
1732389389301,3.76001,-2.84406,-132.901,-0.0503321,-0.0661306,0.981384,-0.0111084,-0.0888672,0,-0.00195312,0.00195312,0,0
1732389389301,3.75293,-2.85245,-132.9,-0.0584097,-0.0660172,0.988991,-0.128296,0.0975342,0,-0.00195312,0.00195312,0,0
1732389389367,3.76111,-2.83778,-132.901,-0.0429811,-0.0623798,0.993631,-0.0720215,-0.0200195,0,-0.00195312,0.00195312,0,0
1732389389426,3.75232,-2.83816,-132.901,-0.0467205,-0.0700741,0.993309,0.108765,-0.0844727,0,-0.00195312,0.00195312,0,0
1732389389426,3.74326,-2.85541,-132.9,-0.0508451,-0.0661402,0.997198,0.109253,-0.0865479,0,-0.00195312,0.00195312,0,0
1732389389488,3.70724,-2.86928,-132.899,-0.0468063,-0.0545607,0.985744,-0.125122,0.21936,0,-0.00195312,0.00195312,0,0
1732389389488,3.73943,-2.86703,-132.9,-0.0468063,-0.0661974,0.993395,0.0524902,0.032959,0,-0.00195312,0.00195312,0,0
1732389389551,3.72218,-2.84767,-132.9,-0.0429811,-0.0623798,0.993631,-0.125122,0.286133,0,-0.00195312,0.00195312,0,0
1732389389614,3.73447,-2.84573,-132.9,-0.0469341,-0.0662003,0.997349,0.0467529,-0.145508,0,-0.00195312,0.00195312,0,0
1732389389614,3.72594,-2.85923,-132.9,-0.0464211,-0.0661898,0.981535,-0.00952148,-0.0279541,0,-0.00195312,0.00195312,0,0
1732389389676,3.72733,-2.86449,-132.9,-0.0542002,-0.062192,0.977365,0.110107,-0.0905762,0,-0.00195312,0.00195312,0,0
1732389389740,3.74133,-2.85436,-132.9,-0.04702,-0.0623226,0.997435,0.110107,-0.0236816,0,-0.00195312,0.00195312,0,0
1732389389740,3.71344,-2.86038,-132.899,-0.0468493,-0.0700769,0.997263,0.107544,-0.0804443,0,-0.00195312,0.00195312,0,0
1732389389802,3.72153,-2.87187,-132.899,-0.054285,-0.0699511,0.985102,0.0493164,-0.15564,0,-0.00195312,0.00195312,0,0
1732389389864,3.72337,-2.84184,-132.9,-0.0462503,-0.0623083,0.973713,-0.132935,-0.085083,0,-0.00195312,0.00195312,0,0
1732389389864,3.7305,-2.84217,-132.9,-0.0508451,-0.0661402,0.997198,-0.0662842,0.158569,0,-0.00195312,0.00195312,0,0
1732389389928,3.71387,-2.85408,-132.899,-0.0508451,-0.0661402,0.997198,0.110596,-0.0256348,0,-0.00195312,0.00195312,0,0
1732389389928,3.71672,-2.84187,-132.9,-0.0506315,-0.070015,0.99316,0.0472412,-0.147583,0,-0.00195312,0.00195312,0,0
1732389389991,3.70561,-2.84985,-132.899,-0.0466776,-0.0545588,0.981791,0.0498047,-0.0906982,0,-0.00195312,0.00195312,0,0
1732389390057,3.72528,-2.86124,-132.9,-0.0584097,-0.0660172,0.988991,-0.125732,0.288208,0,-0.00195312,0.00195312,0,0
1732389390115,3.73383,-2.88769,-132.899,-0.0547132,-0.0622015,0.993181,0.114502,0.160889,0,-0.00195312,0.00195312,0,0
1732389390115,3.69667,-2.88213,-132.899,-0.0466776,-0.0661945,0.989441,0.0515137,0.0372314,0,-0.00195312,0.00195312,0,0
1732389390183,3.70811,-2.89504,-132.899,-0.0547132,-0.0622015,0.993181,0.0515137,0.0372314,0,-0.00195312,0.00195312,0,0
1732389390183,3.69887,-2.90311,-132.898,-0.0587091,-0.0582657,0.993116,0.108276,-0.149414,0,-0.00195312,0.00195312,0,0
1732389390240,3.71445,-2.87992,-132.899,-0.0428534,-0.0740137,0.997328,0.052002,0.0350342,0,-0.00195312,0.00195312,0,0
1732389390303,3.71561,-2.87715,-132.899,-0.0506315,-0.070015,0.99316,0.0498047,-0.0238037,0,-0.00195312,0.00195312,0,0
1732389390303,3.71849,-2.87275,-132.9,-0.0546274,-0.0660791,0.993095,-0.0651855,0.221436,0,-0.00195312,0.00195312,0,0
1732389390368,3.72008,-2.88216,-132.899,-0.0505028,-0.070013,0.989206,-0.0715332,-0.0889893,0,-0.00195312,0.00195312,0,0
1732389390427,3.72414,-2.8843,-132.899,-0.0544138,-0.0583172,0.981405,-0.00634766,0.160645,0,-0.00195312,0.00195312,0,0
1732389390427,3.74486,-2.88236,-132.9,-0.0507164,-0.0661383,0.993246,0.059082,0.408447,0,-0.00195312,0.00195312,0,0
1732389390493,3.73819,-2.8654,-132.901,-0.0465498,-0.0661926,0.985487,-0.0195312,-0.324219,0,-0.00195312,0.00195312,0,0
1732389390556,3.75351,-2.85722,-132.901,-0.0427675,-0.0662546,0.989592,0.111816,0.0372314,0,-0.00195312,0.00195312,0,0
1732389390556,3.72745,-2.87061,-132.9,-0.0507593,-0.0583811,0.989462,-0.00952148,0.0388184,0,-0.00195312,0.00195312,0,0
1732389390614,3.7494,-2.87318,-132.901,-0.0584955,-0.0621405,0.989077,-0.0117188,-0.0198975,0,-0.00195312,0.00195312,0,0
1732389390614,3.73473,-2.85712,-132.901,-0.0504599,-0.0661335,0.985338,0.111328,-0.02771,0,-0.00195312,0.00195312,0,0
1732389390677,3.73456,-2.86781,-132.9,-0.0429811,-0.0623798,0.993631,0.0577393,0.28064,0,-0.00195312,0.00195312,0,0
1732389390739,3.73631,-2.88178,-132.9,-0.0507164,-0.0661383,0.993246,-0.00378418,0.284424,0,-0.00195312,0.00195312,0,0
1732389390739,3.74242,-2.86898,-132.901,-0.0507593,-0.0700178,0.997114,-0.00793457,0.0998535,0,-0.00195312,0.00195312,0,0
1732389390800,3.7453,-2.87324,-132.901,-0.0505886,-0.0661354,0.989292,0.0455322,-0.208374,0,-0.00195312,0.00195312,0,0
1732389390863,3.73283,-2.87447,-132.9,-0.04702,-0.0623226,0.997435,0.048584,-0.0197754,0,-0.00195312,0.00195312,0,0
1732389390863,3.76225,-2.87012,-132.901,-0.0506315,-0.070015,0.99316,0.108276,-0.149414,0,-0.00195312,0.00195312,0,0
1732389390925,3.73808,-2.88004,-132.9,-0.0465069,-0.0623131,0.981619,-0.131958,0.0447998,0,-0.00195312,0.00195312,0,0
1732389390987,3.75331,-2.88754,-132.9,-0.0508881,-0.0583839,0.993416,-0.00793457,0.032959,0,-0.00195312,0.00195312,0,0
1732389390987,3.76346,-2.87398,-132.901,-0.0543709,-0.0660744,0.985188,-0.00488281,0.221436,0,-0.00195312,0.00195312,0,0
1732389391050,3.77335,-2.8588,-132.901,-0.0465927,-0.0700722,0.989357,0.17688,0.153076,0,-0.00195312,0.00195312,0,0
1732389391050,3.77072,-2.87836,-132.901,-0.0467205,-0.0700741,0.993309,0.050293,-0.0258789,0,-0.00195312,0.00195312,0,0
1732389391113,3.7785,-2.87196,-132.901,-0.0469341,-0.0662003,0.997349,-0.00134277,0.276855,0,-0.00195312,0.00195312,0,0
1732389391175,3.77049,-2.88357,-132.901,-0.0506315,-0.0583792,0.98551,0.11377,-0.0354004,0,-0.00195312,0.00195312,0,0
1732389391175,3.76636,-2.88413,-132.901,-0.0505886,-0.0661354,0.989292,-0.13269,-0.151611,0,-0.00195312,0.00195312,0,0
1732389391235,3.7659,-2.89169,-132.9,-0.0427675,-0.0662546,0.989592,0.0517578,-0.0294189,0,-0.00195312,0.00195312,0,0
1732389391303,3.72495,-2.88386,-132.899,-0.0427246,-0.0623741,0.985723,-0.0675049,-0.0357666,0,-0.00195312,0.00195312,0,0
1732389391303,3.73483,-2.87483,-132.9,-0.0467634,-0.0623178,0.989527,-0.0112305,-0.220215,0,-0.00195312,0.00195312,0,0
1732389391366,3.72665,-2.86758,-132.9,-0.0508022,-0.0622606,0.99333,0.0548096,0.0922852,0,-0.00195312,0.00195312,0,0
1732389391423,3.73924,-2.87783,-132.9,-0.0428104,-0.0701342,0.99346,0.175293,0.02771,0,-0.00195312,0.00195312,0,0
1732389391485,3.71765,-2.88266,-132.899,-0.0468922,-0.0623198,0.993481,-0.0654297,0.15686,0,-0.00195312,0.00195312,0,0
1732389391485,3.73341,-2.8836,-132.9,-0.0508451,-0.0661402,0.997198,-0.0690918,-0.0296631,0,-0.00195312,0.00195312,0,0
1732389391551,3.74242,-2.87621,-132.9,-0.0545845,-0.0621996,0.989227,-0.0690918,-0.0296631,0,-0.00195312,0.00195312,0,0
1732389391551,3.75162,-2.86327,-132.901,-0.0466776,-0.0661945,0.989441,-0.0128174,-0.214111,0,-0.00195312,0.00195312,0,0
1732389391608,3.75752,-2.87617,-132.901,-0.0505028,-0.070013,0.989206,0.115356,0.0255127,0,-0.00195312,0.00195312,0,0
1732389391608,3.72617,-2.86987,-132.9,-0.0508451,-0.0661402,0.997198,-0.0065918,0.0292969,0,-0.00195312,0.00195312,0,0
1732389391672,3.75891,-2.86118,-132.901,-0.0505457,-0.0622559,0.985424,-0.0706787,-0.0905762,0,-0.00195312,0.00195312,0,0
1732389391738,3.7505,-2.84333,-132.902,-0.0468493,-0.0584402,0.989613,0.0477295,-0.281006,0,-0.00195312,0.00195312,0,0
1732389391796,3.76143,-2.84116,-132.902,-0.0544567,-0.0621967,0.985273,0.174805,-0.0372314,0,-0.00195312,0.00195312,0,0
1732389391796,3.75394,-2.84427,-132.902,-0.0428953,-0.0662565,0.993546,0.0543213,0.0943604,0,-0.00195312,0.00195312,0,0
1732389391859,3.73599,-2.8605,-132.901,-0.0503321,-0.0661306,0.981384,-0.0654297,0.0898438,0,-0.00195312,0.00195312,0,0
1732389391859,3.73224,-2.85495,-132.902,-0.0508022,-0.0622606,0.99333,-0.12793,0.0310059,0,-0.00195312,0.00195312,0,0
1732389391921,3.73378,-2.85443,-132.902,-0.0467634,-0.0623178,0.989527,-0.126953,0.0939941,0,-0.00195312,0.00195312,0,0
1732389391986,3.74976,-2.86067,-132.902,-0.0505028,-0.070013,0.989206,0.0622559,0.264893,0,-0.00195312,0.00195312,0,0
1732389391986,3.72691,-2.86839,-132.901,-0.0424681,-0.0740061,0.985466,-0.130005,-0.027832,0,-0.00195312,0.00195312,0,0
1732389392044,3.72702,-2.89317,-132.9,-0.0544567,-0.0621967,0.985273,0.0565186,0.0860596,0,-0.00195312,0.00195312,0,0
1732389392111,3.71643,-2.88519,-132.9,-0.0508022,-0.0622606,0.99333,-0.0738525,-0.21228,0,-0.00195312,0.00195312,0,0
1732389392111,3.72665,-2.88181,-132.901,-0.0508451,-0.0661402,0.997198,0.053833,0.0292969,0,-0.00195312,0.00195312,0,0
1732389392172,3.72795,-2.87177,-132.901,-0.0428104,-0.0701342,0.99346,0.0534668,0.0314941,0,-0.00195312,0.00195312,0,0
1732389392230,3.7411,-2.86459,-132.902,-0.0465069,-0.0623131,0.981619,-0.123779,0.21582,0,-0.00195312,0.00195312,0,0
1732389392230,3.71864,-2.85371,-132.902,-0.0507593,-0.0583811,0.989462,0.114868,-0.0394287,0,-0.00195312,0.00195312,0,0
1732389392294,3.73299,-2.85352,-132.902,-0.0468063,-0.0661974,0.993395,0.0512695,-0.0273438,0,-0.00195312,0.00195312,0,0
1732389392294,3.74887,-2.86387,-132.903,-0.0506744,-0.0622587,0.989378,0.118042,0.149292,0,-0.00195312,0.00195312,0,0
1732389392360,3.72992,-2.87065,-132.902,-0.0467205,-0.0700741,0.993309,0.0477295,-0.213989,0,-0.00195312,0.00195312,0,0
1732389392418,3.74062,-2.87719,-132.902,-0.0465498,-0.0661926,0.985487,-0.0695801,-0.0946045,0,-0.00195312,0.00195312,0,0
1732389392418,3.7281,-2.87067,-132.902,-0.0507164,-0.0661383,0.993246,-0.191528,-0.0908203,0,-0.00195312,0.00195312,0,0
1732389392481,3.75415,-2.86595,-132.902,-0.0468063,-0.0661974,0.993395,0.0529785,-0.0334473,0,-0.00195312,0.00195312,0,0
1732389392543,3.74686,-2.85718,-132.902,-0.0428953,-0.0662565,0.993546,-0.00720215,0.0982666,0,-0.00195312,0.00195312,0,0
1732389392543,3.75023,-2.88405,-132.902,-0.0468063,-0.0661974,0.993395,-0.0681152,0.0330811,0,-0.00195312,0.00195312,0,0
1732389392610,3.72198,-2.88514,-132.901,-0.0507164,-0.0545015,0.985594,-0.00549316,0.0922852,0,-0.00195312,0.00195312,0,0
1732389392668,3.74438,-2.86656,-132.902,-0.0506744,-0.0622587,0.989378,-0.00964355,-0.159424,0,-0.00195312,0.00195312,0,0
1732389392668,3.77173,-2.87347,-132.903,-0.0468922,-0.0623198,0.993481,0.111084,-0.15918,0,-0.00195312,0.00195312,0,0
1732389392730,3.74385,-2.86111,-132.902,-0.0428104,-0.0701342,0.99346,-0.0701904,-0.0256348,0,-0.00195312,0.00195312,0,0
1732389392730,3.7469,-2.86795,-132.902,-0.050375,-0.0700102,0.985252,-0.00549316,0.0922852,0,-0.00195312,0.00195312,0,0
1732389392793,3.74132,-2.85746,-132.902,-0.0506315,-0.0583792,0.98551,-0.126953,0.0939941,0,-0.00195312,0.00195312,0,0
1732389392856,3.74852,-2.86661,-132.902,-0.0467634,-0.0623178,0.989527,-0.189453,0.03479,0,-0.00195312,0.00195312,0,0
1732389392856,3.73361,-2.86308,-132.902,-0.0506744,-0.0622587,0.989378,-0.0670166,0.0960693,0,-0.00195312,0.00195312,0,0
1732389392920,3.72528,-2.88268,-132.901,-0.0545845,-0.0738354,0.996878,-0.00817871,-0.0316162,0,-0.00195312,0.00195312,0,0
1732389392981,3.72597,-2.88676,-132.901,-0.0466776,-0.0661945,0.989441,-0.0706787,-0.0905762,0,-0.00195312,0.00195312,0,0
1732389393041,3.73157,-2.88116,-132.901,-0.0504599,-0.0661335,0.985338,-0.128418,0.0330811,0,-0.00195312,0.00195312,0,0
1732389393041,3.75369,-2.86738,-132.903,-0.0510588,-0.0622654,1.00124,0.0557861,0.155151,0,-0.00195312,0.00195312,0,0
1732389393104,3.75797,-2.85487,-132.903,-0.0467634,-0.0739536,0.997177,-0.0697021,0.0393066,0,-0.00195312,0.00195312,0,0
1732389393166,3.7589,-2.85646,-132.903,-0.0505028,-0.070013,0.989206,-0.0700684,-0.0925293,0,-0.00195312,0.00195312,0,0
1732389393166,3.75298,-2.86241,-132.902,-0.0508022,-0.0622606,0.99333,-0.0775146,-0.332031,0,-0.00195312,0.00195312,0,0
1732389393228,3.76254,-2.86146,-132.902,-0.0466776,-0.0661945,0.989441,0.11377,-0.0354004,0,-0.00195312,0.00195312,0,0
1732389393228,3.76385,-2.86777,-132.902,-0.0507164,-0.0661383,0.993246,0.119019,0.145142,0,-0.00195312,0.00195312,0,0
1732389393290,3.76523,-2.85863,-132.902,-0.0505886,-0.0661354,0.989292,0.167847,-0.278687,0,-0.00195312,0.00195312,0,0
1732389393351,3.74512,-2.84375,-132.902,-0.0467205,-0.0700741,0.993309,-0.00915527,-0.0944824,0,-0.00195312,0.00195312,0,0
1732389393351,3.74382,-2.85191,-132.902,-0.0465069,-0.0623131,0.981619,-0.00439453,0.0212402,0,-0.00195312,0.00195312,0,0
1732389393413,3.7426,-2.84786,-132.902,-0.0506315,-0.0583792,0.98551,-0.0638428,0.150879,0,-0.00195312,0.00195312,0,0
1732389393476,3.7581,-2.83339,-132.903,-0.0505028,-0.070013,0.989206,-0.0675049,-0.0357666,0,-0.00195312,0.00195312,0,0
1732389393476,3.76949,-2.8409,-132.903,-0.0508022,-0.0622606,0.99333,0.0585938,0.211914,0,-0.00195312,0.00195312,0,0
1732389393537,3.74017,-2.84573,-132.903,-0.046464,-0.0700693,0.985403,-0.0112305,-0.15332,0,-0.00195312,0.00195312,0,0
1732389393599,3.74979,-2.84866,-132.903,-0.0507164,-0.0661383,0.993246,-0.126343,0.092041,0,-0.00195312,0.00195312,0,0
1732389393599,3.74942,-2.86163,-132.902,-0.0545416,-0.05832,0.985359,-0.0706787,-0.0905762,0,-0.00195312,0.00195312,0,0
1732389393660,3.77629,-2.86294,-132.903,-0.0427675,-0.0662546,0.989592,-0.00769043,0.100342,0,-0.00195312,0.00195312,0,0
1732389393724,3.76019,-2.86147,-132.902,-0.0429382,-0.0701361,0.997414,0.0548096,0.0922852,0,-0.00195312,0.00195312,0,0
1732389393724,3.75261,-2.87353,-132.902,-0.0505028,-0.070013,0.989206,0.0529785,-0.0334473,0,-0.00195312,0.00195312,0,0
1732389393784,3.74738,-2.87897,-132.902,-0.0506315,-0.0583792,0.98551,-0.128418,0.0330811,0,-0.00195312,0.00195312,0,0
1732389393784,3.75572,-2.86822,-132.902,-0.0502043,-0.0661287,0.97743,0.0529785,-0.0334473,0,-0.00195312,0.00195312,0,0
1732389393847,3.75594,-2.87547,-132.902,-0.0507164,-0.0661383,0.993246,0.168579,-0.280762,0,-0.00195312,0.00195312,0,0
1732389393908,3.72282,-2.8703,-132.901,-0.0544567,-0.0738335,0.992924,-0.126343,0.158813,0,-0.00195312,0.00195312,0,0
1732389393908,3.74481,-2.87718,-132.901,-0.0543709,-0.0660744,0.985188,-0.00341797,0.150879,0,-0.00195312,0.00195312,0,0
1732389393971,3.7271,-2.85934,-132.902,-0.0508881,-0.0583839,0.993416,0.048584,-0.285034,0,-0.00195312,0.00195312,0,0
1732389393971,3.73547,-2.85461,-132.902,-0.0508451,-0.0661402,0.997198,0.0505371,-0.0922852,0,-0.00195312,0.00195312,0,0
1732389394033,3.6931,-2.84824,-132.901,-0.0467205,-0.0700741,0.993309,0.053833,0.0292969,0,-0.00195312,0.00195312,0,0
1732389394094,3.68698,-2.83779,-132.901,-0.0467634,-0.0623178,0.989527,-0.0654297,0.15686,0,-0.00195312,0.00195312,0,0
1732389394094,3.68806,-2.86555,-132.9,-0.0546703,-0.058322,0.989313,-0.0675049,0.03125,0,-0.00195312,0.00195312,0,0
1732389394157,3.70592,-2.84866,-132.901,-0.0466356,-0.062315,0.985573,-0.065918,0.092041,0,-0.00195312,0.00195312,0,0
1732389394217,3.72528,-2.85684,-132.902,-0.05093,-0.0622635,0.997284,0.115356,0.0255127,0,-0.00195312,0.00195312,0,0
1732389394218,3.71677,-2.86559,-132.901,-0.0427675,-0.0662546,0.989592,-0.00817871,-0.0316162,0,-0.00195312,0.00195312,0,0
1732389394279,3.71269,-2.85301,-132.901,-0.046464,-0.0700693,0.985403,0.053833,0.0292969,0,-0.00195312,0.00195312,0,0
1732389394342,3.70798,-2.85448,-132.901,-0.0544567,-0.050561,0.977623,-0.126953,0.0939941,0,-0.00195312,0.00195312,0,0
1732389394342,3.73132,-2.83514,-132.902,-0.0468063,-0.0545607,0.985744,0.107544,-0.211914,0,-0.00195312,0.00195312,0,0
1732389394403,3.73962,-2.82939,-132.903,-0.0511446,-0.0583887,1.00132,0.053833,0.0292969,0,-0.00195312,0.00195312,0,0
1732389394466,3.74625,-2.83183,-132.903,-0.0465069,-0.0739489,0.989271,0.000732422,0.335449,0,-0.00195312,0.00195312,0,0
1732389394466,3.75116,-2.83087,-132.903,-0.0506315,-0.070015,0.99316,-0.131104,-0.0906982,0,-0.00195312,0.00195312,0,0
1732389394530,3.7444,-2.83412,-132.902,-0.0507593,-0.0700178,0.997114,-0.0686035,-0.0317383,0,-0.00195312,0.00195312,0,0
1732389394530,3.75467,-2.8401,-132.902,-0.0467634,-0.0623178,0.989527,0.0522461,-0.0314941,0,-0.00195312,0.00195312,0,0
1732389394592,3.75542,-2.84403,-132.902,-0.0506744,-0.0738945,0.997028,0.116333,0.088501,0,-0.00195312,0.00195312,0,0
1732389394651,3.75089,-2.84465,-132.902,-0.0465927,-0.0700722,0.989357,-0.129517,-0.0297852,0,-0.00195312,0.00195312,0,0
1732389394651,3.74226,-2.84795,-132.902,-0.0465069,-0.0623131,0.981619,-0.00927734,-0.0274658,0,-0.00195312,0.00195312,0,0
1732389394713,3.76346,-2.83479,-132.903,-0.0468493,-0.0584402,0.989613,0.0534668,-0.102417,0,-0.00195312,0.00195312,0,0
1732389394775,3.75304,-2.84998,-132.902,-0.054884,-0.0544472,0.993351,0.0534668,-0.0355225,0,-0.00195312,0.00195312,0,0
1732389394776,3.74947,-2.8577,-132.901,-0.0469341,-0.0662003,0.997349,0.0517578,-0.0294189,0,-0.00195312,0.00195312,0,0
1732389394838,3.73732,-2.87701,-132.9,-0.0427675,-0.0662546,0.989592,0.112793,-0.0982666,0,-0.00195312,0.00195312,0,0
1732389394901,3.75137,-2.87322,-132.9,-0.0428104,-0.0701342,0.99346,-0.0633545,0.21582,0,-0.00195312,0.00195312,0,0
1732389394901,3.73238,-2.87509,-132.9,-0.0507164,-0.0545015,0.985594,0.109375,-0.153076,0,-0.00195312,0.00195312,0,0
1732389394964,3.72995,-2.87122,-132.9,-0.0507164,-0.0661383,0.993246,0.0548096,0.0922852,0,-0.00195312,0.00195312,0,0
1732389395026,3.73706,-2.85755,-132.9,-0.0431948,-0.0701408,1.00532,0.177124,0.0865479,0,-0.00195312,0.00195312,0,0
1732389395026,3.69427,-2.85926,-132.899,-0.0468063,-0.0661974,0.993395,-0.0065918,0.0292969,0,-0.00195312,0.00195312,0,0
1732389395087,3.70718,-2.8627,-132.9,-0.0504599,-0.0661335,0.985338,-0.0102539,-0.0904541,0,-0.00195312,0.00195312,0,0
1732389395155,3.72897,-2.85841,-132.901,-0.0506744,-0.0622587,0.989378,-0.00769043,0.0333252,0,-0.00195312,0.00195312,0,0
1732389395155,3.76154,-2.85159,-132.902,-0.0508451,-0.0661402,0.997198,0.11377,-0.0354004,0,-0.00195312,0.00195312,0,0
1732389395213,3.74492,-2.87043,-132.9,-0.0507593,-0.0700178,0.997114,-0.00610352,0.0941162,0,-0.00195312,0.00195312,0,0
1732389395213,3.75221,-2.86755,-132.901,-0.0467205,-0.0700741,0.993309,-0.00817871,-0.0316162,0,-0.00195312,0.00195312,0,0
1732389395276,3.7482,-2.86762,-132.901,-0.0545416,-0.05832,0.985359,0.059082,0.210083,0,-0.00195312,0.00195312,0,0
1732389395338,3.7538,-2.867,-132.901,-0.0506744,-0.0622587,0.989378,-0.123779,0.21582,0,-0.00195312,0.00195312,0,0
1732389395338,3.74133,-2.86955,-132.901,-0.0468493,-0.0700769,0.997263,0.110107,-0.155029,0,-0.00195312,0.00195312,0,0
1732389395402,3.70721,-2.8774,-132.9,-0.0506315,-0.070015,0.99316,-0.0670166,0.0960693,0,-0.00195312,0.00195312,0,0
1732389395461,3.72128,-2.8831,-132.9,-0.0505028,-0.070013,0.989206,0.113281,-0.100342,0,-0.00195312,0.00195312,0,0
1732389395461,3.71419,-2.88457,-132.9,-0.0508881,-0.0583839,0.993416,-0.0134277,-0.212158,0,-0.00195312,0.00195312,0,0
1732389395524,3.74495,-2.88623,-132.9,-0.0505457,-0.0622559,0.985424,-0.00866699,-0.029541,0,-0.00195312,0.00195312,0,0
1732389395586,3.74121,-2.88358,-132.9,-0.0467205,-0.0700741,0.993309,0.113281,-0.0333252,0,-0.00195312,0.00195312,0,0
1732389395586,3.72467,-2.87369,-132.9,-0.0428534,-0.062377,0.989677,-0.00500488,0.0900879,0,-0.00195312,0.00195312,0,0
1732389395649,3.71675,-2.87381,-132.9,-0.0547981,-0.0583248,0.993267,-0.0643311,0.153076,0,-0.00195312,0.00195312,0,0
1732389395649,3.73656,-2.85881,-132.901,-0.0466776,-0.0661945,0.989441,-0.0695801,-0.02771,0,-0.00195312,0.00195312,0,0
1732389395712,3.76486,-2.85185,-132.902,-0.0544987,-0.0660763,0.989141,-0.00769043,0.0333252,0,-0.00195312,0.00195312,0,0
1732389395774,3.74245,-2.85557,-132.902,-0.0428953,-0.0778933,1.0012,-0.000244141,0.272705,0,-0.00195312,0.00195312,0,0
1732389395774,3.75569,-2.85863,-132.902,-0.0427675,-0.0662546,0.989592,0.120605,0.206055,0,-0.00195312,0.00195312,0,0
1732389395835,3.74323,-2.85626,-132.902,-0.0428104,-0.0584974,0.985809,-0.13269,-0.151611,0,-0.00195312,0.00195312,0,0
1732389395897,3.73788,-2.83654,-132.902,-0.0427675,-0.0662546,0.989592,-0.0638428,0.217651,0,-0.00195312,0.00195312,0,0
1732389395897,3.74074,-2.85123,-132.902,-0.05093,-0.0622635,0.997284,0.0600586,0.272705,0,-0.00195312,0.00195312,0,0
1732389395960,3.73674,-2.84808,-132.902,-0.054328,-0.0738306,0.98897,0.053833,0.0292969,0,-0.00195312,0.00195312,0,0
1732389396022,3.72688,-2.85046,-132.902,-0.0506315,-0.0583792,0.98551,-0.00927734,-0.0274658,0,-0.00195312,0.00195312,0,0
1732389396022,3.74406,-2.83873,-132.902,-0.0507164,-0.0661383,0.993246,-0.131592,-0.088623,0,-0.00195312,0.00195312,0,0
1732389396083,3.77475,-2.83923,-132.903,-0.0505886,-0.0661354,0.989292,0.173096,-0.0311279,0,-0.00195312,0.00195312,0,0
1732389396145,3.75885,-2.83078,-132.903,-0.0426817,-0.0701313,0.989506,-0.12793,0.0980225,0,-0.00195312,0.00195312,0,0
1732389396145,3.7439,-2.8298,-132.902,-0.0505886,-0.0661354,0.989292,0.0490723,-0.0861816,0,-0.00195312,0.00195312,0,0
1732389396208,3.71428,-2.84242,-132.901,-0.046977,-0.0584431,0.993567,0.171875,-0.0939941,0,-0.00195312,0.00195312,0,0
1732389396208,3.73361,-2.84966,-132.901,-0.0586233,-0.0621424,0.993031,0.111084,-0.0921631,0,-0.00195312,0.00195312,0,0
1732389396270,3.71838,-2.84019,-132.901,-0.0427675,-0.0662546,0.989592,0.0505371,-0.0922852,0,-0.00195312,0.00195312,0,0
1732389396333,3.70477,-2.84054,-132.9,-0.0468912,-0.0739565,1.00113,-0.00817871,-0.0316162,0,-0.00195312,0.00195312,0,0
1732389396333,3.6953,-2.84034,-132.901,-0.0465069,-0.0739489,0.989271,-0.0654297,0.15686,0,-0.00195312,0.00195312,0,0
1732389396399,3.71455,-2.85335,-132.901,-0.0466356,-0.062315,0.985573,-0.0675049,-0.0357666,0,-0.00195312,0.00195312,0,0
1732389396460,3.73372,-2.85657,-132.901,-0.054884,-0.0544472,0.993351,0.0534668,-0.0355225,0,-0.00195312,0.00195312,0,0
1732389396460,3.72955,-2.85905,-132.901,-0.0505886,-0.0661354,0.989292,-0.0721436,-0.218384,0,-0.00195312,0.00195312,0,0
1732389396522,3.74585,-2.85508,-132.901,-0.046464,-0.0700693,0.985403,0.174316,-0.0352783,0,-0.00195312,0.00195312,0,0
1732389396640,3.7041,-2.86208,-132.9,-0.0505886,-0.0661354,0.989292,-0.124878,0.219849,0,-0.00195312,0.00195312,0,0
1732389396640,3.71844,-2.86764,-132.9,-0.0504599,-0.0661335,0.985338,0.0534668,-0.0355225,0,-0.00195312,0.00195312,0,0
1732389396692,3.70845,-2.87118,-132.9,-0.0506744,-0.0622587,0.989378,-0.00610352,0.0941162,0,-0.00195312,0.00195312,0,0
1732389396692,3.70547,-2.87604,-132.9,-0.0544567,-0.0621967,0.985273,0.0505371,-0.0922852,0,-0.00195312,0.00195312,0,0
1732389396758,3.7112,-2.86629,-132.9,-0.0428534,-0.0740137,0.997328,-0.0118408,-0.151245,0,-0.00195312,0.00195312,0,0
1732389396758,3.72627,-2.86713,-132.9,-0.0470629,-0.0662022,1.0013,-0.00756836,-0.0335693,0,-0.00195312,0.00195312,0,0
1732389396821,3.72647,-2.86032,-132.901,-0.0509729,-0.0545063,0.993502,0.107544,-0.278809,0,-0.00195312,0.00195312,0,0
1732389396821,3.7413,-2.86047,-132.901,-0.0505886,-0.0661354,0.989292,-0.0700684,-0.0925293,0,-0.00195312,0.00195312,0,0
1732389396877,3.77176,-2.84035,-132.903,-0.0468493,-0.0700769,0.997263,-0.119629,0.400269,0,-0.00195312,0.00195312,0,0
1732389396939,3.75832,-2.83488,-132.903,-0.0504599,-0.0661335,0.985338,-0.129517,-0.0297852,0,-0.00195312,0.00195312,0,0
1732389396939,3.7581,-2.8286,-132.903,-0.0508881,-0.0583839,0.993416,0.0505371,-0.0922852,0,-0.00195312,0.00195312,0,0
1732389397001,3.75153,-2.83334,-132.903,-0.0469341,-0.0662003,0.997349,0.0529785,-0.0334473,0,-0.00195312,0.00195312,0,0
1732389397063,3.76138,-2.83673,-132.903,-0.0510588,-0.0622654,1.00124,-0.0638428,0.274414,0,-0.00195312,0.00195312,0,0
1732389397063,3.75778,-2.83062,-132.903,-0.0430241,-0.0662594,0.997499,-0.0102539,0.0333252,0,-0.00195312,0.00195312,0,0
1732389397127,3.7435,-2.83965,-132.902,-0.0546703,-0.0699587,0.996964,-0.00500488,0.213867,0,-0.00195312,0.00195312,0,0
1732389397188,3.7207,-2.84641,-132.902,-0.0508451,-0.0545044,0.989548,0.0577393,0.205811,0,-0.00195312,0.00195312,0,0
1732389397188,3.73314,-2.85356,-132.902,-0.050375,-0.0583744,0.977602,-0.251343,0.0977783,0,-0.00195312,0.00195312,0,0
1732389397251,3.74712,-2.84657,-132.902,-0.0507164,-0.0661383,0.993246,0.114258,0.0863037,0,-0.00195312,0.00195312,0,0
1732389397251,3.72995,-2.84724,-132.902,-0.0468063,-0.0661974,0.993395,-0.0102539,-0.0336914,0,-0.00195312,0.00195312,0,0
1732389397312,3.74667,-2.84939,-132.902,-0.0506315,-0.070015,0.99316,-0.0622559,0.335449,0,-0.00195312,0.00195312,0,0
1732389397374,3.73309,-2.86528,-132.901,-0.0547552,-0.066081,0.997049,0.0512695,0.0963135,0,-0.00195312,0.00195312,0,0
1732389397374,3.75467,-2.87101,-132.902,-0.0547132,-0.0622015,0.993181,0.0517578,0.0274658,0,-0.00195312,0.00195312,0,0
1732389397441,3.74336,-2.87885,-132.901,-0.0505457,-0.0738926,0.993074,-0.0045166,0.21167,0,-0.00195312,0.00195312,0,0
1732389397497,3.73894,-2.8895,-132.901,-0.046464,-0.0700693,0.985403,-0.013916,-0.153442,0,-0.00195312,0.00195312,0,0
1732389397497,3.72261,-2.89689,-132.9,-0.0543709,-0.0660744,0.985188,-0.0679932,0.0898438,0,-0.00195312,0.00195312,0,0
1732389397561,3.73294,-2.89485,-132.901,-0.0428953,-0.0662565,0.993546,-0.19043,0.0955811,0,-0.00195312,0.00195312,0,0
1732389397624,3.74249,-2.87903,-132.901,-0.0468493,-0.0584402,0.989613,-0.0679932,0.0898438,0,-0.00195312,0.00195312,0,0
1732389397624,3.74121,-2.86363,-132.902,-0.0424252,-0.0701265,0.981598,-0.129028,0.158813,0,-0.00195312,0.00195312,0,0
1732389397689,3.74152,-2.86576,-132.902,-0.0427246,-0.0623741,0.985723,0.0529785,0.0900879,0,-0.00195312,0.00195312,0,0
1732389397748,3.72301,-2.85596,-132.901,-0.0467205,-0.0584383,0.985659,-0.196167,-0.14978,0,-0.00195312,0.00195312,0,0
1732389397748,3.73825,-2.86591,-132.901,-0.0465069,-0.0623131,0.981619,0.0505371,0.0314941,0,-0.000976562,-0.000976562,0.0934792,-0.0868225
1732389397809,3.3615,-1.77616,-132.816,0.451523,-0.0890713,0.849855,2.84363,-0.162598,17.8158,-0.000976562,0,0.000911236,-0.000822067
1732389397809,3.00418,0.161301,-130.818,0.221355,-0.000232697,0.767765,-0.195923,-5.12036,82.0354,-0.00195312,0.00195312,-0.0642438,0.0517902
1732389397871,3.13184,1.30342,-126.543,0.131346,0.105455,1.05965,-4.99939,-7.44543,127.352,-0.00292969,0.00195312,-0.0245914,0.0163832
1732389397932,2.87511,2.61349,-120.189,0.054781,0.215145,1.05524,8.48914,-12.3973,184.985,-0.00390625,0.00195312,-0.022366,0.0110478
1732389397932,3.20537,2.63518,-111.961,-0.149271,-0.0490236,0.882936,3.84094,-9.47119,226.323,-0.00488281,0.00195312,-0.0385084,0.0119886
1732389397997,3.01079,2.63712,-102.232,-0.25815,0.409943,0.92091,4.67615,-14.4785,262.574,-0.00683594,0.00390625,-0.0193424,0.00239277
1732389398054,3.05852,3.50517,-91.7083,-0.678501,-0.200746,1.61113,0.761963,-23.6006,272.815,-0.00976562,0.00390625,-0.132487,-0.00852537
1732389398054,2.83467,3.42041,-81.151,0.00501442,-0.0240164,0.695505,12.4807,-11.328,253.995,-0.0126953,0.00195312,-0.0249648,-0.00629616
1732389398115,3.86728,3.28068,-70.1077,-0.0926208,0.0589218,0.634245,8.35181,-28.1632,287.381,-0.0146484,0.00195312,0.00879383,0.00421476
1732389398177,3.69586,2.89249,-58.7417,-0.0134277,-0.0511169,0.919817,2.38489,-22.218,279.269,-0.0146484,0.00195312,-0.0239019,-0.0178847
1732389398177,3.28099,1.69225,-47.4681,0.114468,-0.0644636,0.726526,-5.29895,-10.6401,286.911,-0.0146484,0.00195312,-0.0180821,-0.0202475
1732389398239,3.75847,1.53487,-35.7744,-0.254642,0.123247,0.760084,-3.91431,-12.3823,295.852,-0.0126953,0.00585938,0.0623827,0.10699
1732389398299,3.67719,0.810974,-25.444,-0.319561,-0.0891829,0.970432,0.510986,-5.11035,217.512,-0.0107422,0.00976562,0.0568771,0.143075
1732389398299,3.45912,-0.481812,-18.7397,-0.375014,-0.297954,1.24853,8.91638,4.13269,129.286,-0.00878906,0.015625,0.028614,0.0966077
1732389398362,3.08214,-0.903442,-14.2653,-0.320353,-0.0039978,1.05945,3.11328,-9.05603,100.138,-0.0078125,0.0195312,0.0244141,0.110003
1732389398425,2.27301,-1.62936,-10.8406,-0.216179,0.052557,1.06874,-9.36926,-9.60596,78.7935,-0.00683594,0.0205078,0.013382,0.0799522
1732389398425,2.09668,-2.10168,-8.31702,-0.419291,0.0363827,0.945698,-11.5009,-11.4141,52.499,-0.00585938,0.0263672,0.00995398,0.0762649
1732389398487,2.42253,-2.31003,-6.50366,-0.169356,-0.161089,0.851879,-2.0105,-3.88586,42.7579,-0.00585938,0.0302734,0.0176387,0.177516
1732389398548,2.77147,-2.43307,-4.70537,-0.126877,0.179449,0.766319,-2.67468,-2.88708,40.855,-0.00585938,0.0341797,0.00548458,0.0799947
1732389398548,2.71193,-2.50891,-2.95334,-0.34749,0.0821533,0.632828,-10.6359,-5.60913,38.4749,-0.00488281,0.0419922,0.00680351,0.156604
1732389398610,3.19769,-2.89914,-2.15408,-0.0400963,-0.109003,1.05601,-0.988892,-0.444702,13.3784,-0.00488281,0.0458984,0.00416708,0.122203
1732389398610,3.12,-2.91169,-1.45959,-0.45891,-0.13758,1.07477,-2.54834,-4.26868,19.809,-0.00488281,0.0537109,0.00343704,0.146898
1732389398678,3.30736,-2.72713,-1.20331,0.0776901,-0.126287,1.05622,2.8291,1.1604,12.8722,-0.00488281,0.0595703,0.00265074,0.170332
1732389398736,3.19664,-2.88679,-0.712036,-0.150746,-0.0491848,1.04914,0.473999,-0.597168,7.38281,-0.00488281,0.0664062,0.00188398,0.178961
1732389398736,3.26137,-2.87219,-0.421844,-0.0520201,-0.0272417,0.887201,-4.51929,-2.63501,7.32947,-0.00488281,0.0722656,0.000985146,0.185518
1732389398797,3.31068,-2.86709,-0.266785,-0.052021,0.00740051,1.10572,2.65552,1.18542,1.22351,-0.00488281,0.0800781,0.000622272,0.16946
1732389398861,3.34096,-2.9361,-0.151978,-0.0144749,-0.0823002,1.09325,-0.682251,3.47803,3.30115,-0.00488281,0.0878906,0.000295639,0.200785
1732389398861,3.36993,-2.84015,0.0527039,-0.163418,-0.122722,1.12614,4.26672,2.1438,7.59814,-0.00488281,0.0957031,-0.000363827,0.193143
1732389398927,3.36513,-2.78722,0.120483,-0.0433655,-0.132205,1.0514,3.34888,-1.49927,4.27222,-0.00488281,0.102539,-0.000810146,0.198059
1732389398988,3.53223,-2.67524,0.332794,-0.0214615,-0.140214,0.984762,-0.325195,-3.52429,8.11365,-0.00488281,0.110352,-0.00155067,0.208126
1732389398988,3.51878,-2.745,0.42218,-0.0323391,-0.0391722,0.891647,5.3573,0.759155,4.17419,-0.00488281,0.120117,-0.00195885,0.208011
1732389399045,3.58961,-2.80656,0.516418,-0.0443487,-0.0236177,1.0103,-4.09155,-1.15649,-2.73462,-0.00488281,0.12793,-0.00213003,0.209787
1732389399110,3.5379,-2.76012,0.656555,-0.0764666,-0.0346622,0.921713,1.41882,2.39758,2.62805,-0.00488281,0.135742,-0.00253201,0.20462
1732389399111,3.5327,-2.83712,0.772644,0.00751495,-0.0939198,0.785049,-1.69141,-1.3175,0,-0.00488281,0.142578,-0.00272846,0.199224
1732389399172,3.42157,-2.71845,0.843506,-0.0954857,-0.050004,1.03543,6.75488,2.64075,4.97888,-0.00488281,0.152344,-0.00368834,0.23171
1732389399172,3.60374,-2.77861,0.755692,-0.0238342,-0.0819435,0.898914,-3.57166,-1.63965,-10.7506,-0.00488281,0.160156,-0.00174904,0.17807
1732389399235,3.82123,-2.89954,0.236954,-0.0513582,-0.101059,1.03597,-1.69507,3.86475,-20.3425,-0.00488281,0.169922,0.000928879,0.221294
1732389399293,3.87457,-2.9635,-0.854767,-0.357193,-0.018878,0.998299,-0.720093,-0.530273,-34.0854,-0.00488281,0.177734,0.00545406,0.197785
1732389399293,3.92084,-3.17873,-2.46228,-0.0850143,-0.019043,0.933617,0.949097,1.9209,-50.7645,-0.00488281,0.18457,0.0158906,0.256733
1732389399354,4.03204,-3.12753,-4.36728,-0.191324,0.0565071,0.662037,0.632324,-0.0274658,-46.8831,-0.00390625,0.192383,0.0204678,0.211107
1732389399415,4.13193,-3.21443,-6.6796,-0.0683479,0.0270195,1.11346,10.6334,2.29858,-65.8242,-0.00292969,0.200195,0.0300016,0.212422
1732389399415,4.12778,-3.29936,-9.17679,-0.124139,-0.351892,1.03136,10.2769,1.67493,-63.2262,-0.00195312,0.209961,0.0340281,0.18321
1732389399482,4.18855,-3.19466,-11.7165,-0.112071,0.0854397,1.45752,0.848511,3.80774,-59.7695,0,0.217773,0.041532,0.179993
1732389399542,4.30251,-3.30144,-14.2716,0.00809097,-0.0940418,0.887997,-1.78076,5.32361,-64.3806,0.00195312,0.224609,0.0479088,0.172217
1732389399542,4.45285,-3.15388,-16.7289,0.0626888,0.083416,0.898136,2.93274,4.36646,-60.187,0.00390625,0.232422,0.0584579,0.18075
1732389399601,4.41995,-3.16282,-18.9957,-0.121042,0.0281525,0.806623,-1.23938,2.5022,-51.5159,0.0078125,0.240234,0.0747614,0.20359
1732389399662,4.4313,-3.10817,-21.2543,0.0517502,-0.211045,0.946386,6.45947,0.775635,-58.2361,0.00976562,0.248047,0.0881696,0.213093
1732389399662,4.51962,-3.04506,-23.7203,-0.193036,0.0639648,0.95113,-2.48218,-1.3623,-62.5963,0.0136719,0.255859,0.0921021,0.198084
1732389399730,4.62314,-3.11254,-26.1163,-0.0781126,-0.178342,1.18755,0.700439,0.732178,-60.697,0.0175781,0.261719,0.0887065,0.171592
1732389399787,4.76816,-3.04144,-28.5792,-0.0835829,-0.104482,1.06631,2.36816,2.66748,-63.6129,0.0205078,0.268555,0.0982943,0.171713
1732389399787,4.86334,-2.94324,-30.9403,0.0242462,-0.164354,1.16016,2.47498,1.89233,-56.8768,0.0244141,0.274414,0.11519,0.184589
1732389399856,4.81969,-2.78446,-33.0359,-0.129056,-0.0300465,0.971247,-1.88757,2.46667,-55.3557,0.0283203,0.280273,0.112195,0.165977
1732389399856,4.75572,-2.74055,-35.25,-0.0361633,-0.124444,0.944967,-4.26978,3.02747,-57.1437,0.0322266,0.288086,0.129756,0.176314
1732389399915,4.66675,-2.9077,-37.5723,-0.198485,0.0639954,0.998425,-5.99011,-0.552734,-61.62,0.0361328,0.291992,0.122213,0.152538
1732389399977,4.83029,-2.86087,-39.7306,-0.0990524,-0.100097,0.816412,-3.0918,1.51416,-51.241,0.0400391,0.297852,0.104384,0.120409
1732389399977,5.00722,-2.90529,-42.2215,0.138357,-0.0844707,0.968475,1.37,5.60242,-61.0361,0.0458984,0.303711,0.127438,0.135206
1732389400042,5.11032,-2.85123,-44.5423,-0.0302658,-0.136235,1.01222,-0.369629,1.55969,-66.2648,0.0498047,0.306641,0.134206,0.130718
1732389400106,5.20451,-2.76617,-47.0553,-0.0222521,-0.0780354,0.847601,-4.66589,5.59692,-60.6875,0.0556641,0.3125,0.168488,0.151455
1732389400106,5.18163,-2.7908,-49.3179,0.0117435,0.0918083,1.01512,-4.21167,8.95166,-66.6429,0.0605469,0.316406,0.160075,0.130797
1732389400168,5.26207,-2.7412,-51.9311,-0.00391769,-0.171578,1.06786,5.52039,4.31543,-57.4021,0.0605469,0.316406,0.160075,0.130797
1732389400230,5.23822,-2.67904,-54.5515,-0.0170822,-0.109501,1.19149,2.65405,1.19299,-61.7279,0.0703125,0.324219,0.127857,0.0873747
1732389400230,5.41537,-2.60352,-56.8956,-0.0687084,-0.116103,0.856806,-5.08789,5.21899,-65.4591,0.0761719,0.328125,0.153228,0.0954509
1732389400287,5.52216,-2.45283,-59.1098,-0.154335,-0.130441,0.971926,-3.17603,2.91187,-50.9957,0.0839844,0.332031,0.135974,0.0776711
1732389400287,5.50119,-2.36926,-61.6792,0.0383072,-0.133324,0.947647,2.47217,4.14612,-56.7775,0.0898438,0.335938,0.224464,0.116818
1732389400353,5.40654,-2.09804,-63.291,-0.300993,-0.0277042,1.20217,6.35938,1.20496,-50.8354,0.0976562,0.339844,0.137487,0.065165
1732389400413,5.34775,-2.09604,-66.0117,0.0835018,-0.04111,1.06236,0.797485,-0.0465088,-61.2201,0.102539,0.341797,0.171737,0.0732222
1732389400413,5.47739,-1.90681,-67.8063,0.112822,-0.429499,1.3792,14.9462,6.81165,-60.6547,0.110352,0.345703,0.20325,0.0777216
1732389400476,5.48799,-2.01792,-70.2949,0.0855312,-0.247046,1.49713,10.9673,7.40149,-63.6497,0.116211,0.34668,0.20716,0.0695171
1732389400543,5.50818,-2.09782,-72.6891,-0.0622787,-0.0157995,1.19585,3.2251,1.62646,-60.615,0.124023,0.348633,0.192093,0.055552
1732389400600,5.43185,-1.744,-77.1094,-0.199018,-0.0832748,0.99107,4.12866,-3.74377,-54.0264,0.131836,0.350586,0.174355,0.0436969
1732389400600,5.46753,-1.83566,-79.1716,-0.255904,0.084301,0.945204,-6.58777,0.770142,-51.2484,0.137695,0.352539,0.121938,0.0257039
1732389400661,5.42598,-1.90233,-81.2799,0.00490761,0.169788,0.692024,-3.95068,1.92261,-59.0857,0.150391,0.354492,0.138468,0.0185275
1732389400722,5.45163,-1.86342,-83.4608,-0.0519781,-0.000355721,1.10951,-2.46362,1.78577,-56.3575,0.15625,0.354492,0.154547,0.0146465
1732389400791,5.26456,-2.02824,-85.9983,0.0162525,0.215881,0.915209,-2.34656,4.83179,-71.1082,0.164062,0.356445,0.0932736,0.00436687
1732389400791,5.30823,-1.94251,-88.5283,0.073843,-0.24299,1.49282,9.63684,4.11816,-66.4077,0.169922,0.356445,0.221081,0.000804901
1732389400851,5.35225,-1.74924,-91.0438,0.156029,-0.115833,1.04762,6.45227,8.16016,-65.7184,0.175781,0.356445,0.204583,-0.00752592
1732389400912,5.49571,-1.78409,-93.249,-0.0219526,-0.132333,0.874079,1.349,5.98767,-57.9081,0.183594,0.356445,0.153083,-0.0117278
1732389400912,5.55003,-1.6798,-95.4433,-0.00443172,-0.00867939,0.976561,-1.97095,2.79285,-52.2297,0.188477,0.354492,0.195735,-0.0224915
1732389400979,5.64618,-1.64909,-97.681,-0.13427,-0.0609093,0.910955,1.77222,2.7428,-56.1022,0.194336,0.354492,0.237022,-0.0367098
1732389400979,5.72762,-1.69697,-100.039,0.0755749,0.013443,0.908907,0.844482,2.98267,-64.3198,0.202148,0.352539,0.180066,-0.0356822
1732389401041,5.73952,-1.64893,-102.205,-0.0610609,-0.202091,1.40144,3.49927,5.25598,-54.418,0.209961,0.350586,0.167641,-0.0395651
1732389401103,5.81784,-1.70476,-104.622,-0.0692434,-0.0309134,0.937914,-0.338257,7.79797,-66.783,0.217773,0.348633,0.15516,-0.0442533
1732389401103,5.79893,-1.58891,-107.226,0.0474529,0.126461,0.736225,-5.12463,3.12683,-57.4991,0.224609,0.34668,0.14679,-0.0486093
1732389401159,5.75674,-1.42146,-109.283,0.0990162,0.133196,0.952147,-5.68433,3.33191,-46.567,0.232422,0.345703,0.232097,-0.0854497
1732389401221,5.52782,-1.90782,-111.424,0.0634365,0.0874424,0.751783,-0.673828,2.91589,-57.1748,0.238281,0.34375,0.126882,-0.0529461
1732389401221,5.6553,-1.82809,-113.792,-0.247889,0.107859,0.562056,-1.78271,3.59509,-60.0648,0.246094,0.339844,0.197581,-0.0924869
1732389401288,5.74692,-1.61067,-116.251,-0.0577278,-0.0510225,1.44066,0.376953,2.7218,-61.522,0.251953,0.335938,0.184024,-0.0952182
1732389401349,5.7291,-1.60892,-118.504,0.299332,-0.343154,1.36465,12.3113,6.03943,-66.1595,0.257812,0.333984,0.127016,-0.0723271
1732389401349,5.88618,-1.37317,-120.88,0.0321102,-0.137321,1.14129,4.12537,0.0078125,-64.1699,0.263672,0.330078,0.0909433,-0.0566359
1732389401410,5.5071,-1.51213,-123.1,-0.0494146,0.150965,0.930973,-11.2045,0.588867,-48.7828,0.268555,0.324219,0.113658,-0.0765696
1732389401468,5.43764,-1.37318,-125.118,0.113911,0.210653,0.804068,-10.7045,4.10583,-50.4613,0.272461,0.322266,0.102625,-0.0748777
1732389401468,5.47536,-1.57861,-127.045,0.0119591,0.42592,0.306253,-16.7914,13.6791,-42.736,0.27832,0.318359,0.0900373,-0.0710282
1732389401530,5.45207,-1.60501,-129.198,-0.0749903,0.0239468,0.475777,-5.63184,7.24719,-45.1138,0.282227,0.314453,0.084197,-0.0713601
1732389401530,5.55273,-1.49533,-131.303,-0.265305,0.162498,0.459707,-8.82715,4.35974,-52.5378,0.288086,0.310547,0.084197,-0.0713601
1732389401594,5.37056,-1.39482,-134.161,-0.0151157,0.0459538,0.78738,-3.84241,3.06555,-69.7721,0.293945,0.306641,0.0577888,-0.0584965
1732389401659,5.2917,-1.14136,-136.359,0.0551662,-0.0990286,1.24995,6.5,4.66846,-57.9427,0.297852,0.301758,0.0507584,-0.055161
1732389401659,5.13765,-1.04556,-138.105,0.0948277,-0.118738,1.00559,4.53711,5.3363,-35.6951,0.297852,0.301758,0.0507584,-0.055161
1732389401722,5.06949,-1.23292,-139.301,-0.0246458,0.00725174,0.865299,0.504272,4.27173,-27.3556,0.304688,0.291992,0.10528,-0.124687
1732389401783,5.14526,-1.18474,-140.217,-0.0191326,-0.144182,1.03623,1.28577,2.99097,-18.8778,0.304688,0.291992,0.10528,-0.124687
1732389401784,5.19717,-1.27391,-140.91,0.0726261,-0.091074,0.827223,1.20398,0.667847,-14.9536,0.314453,0.27832,0.111708,-0.138874
1732389401841,5.15688,-1.26218,-141.465,0.0143948,-0.04002,1.02012,2.08716,-1.51318,-12.5553,0.320312,0.272461,0.129176,-0.163218
1732389401903,5.15334,-1.33768,-141.859,-0.0986681,-0.0302715,0.758646,-1.93787,1.73193,-14.6399,0.326172,0.266602,0.13053,-0.168789
1732389401903,5.17682,-1.30754,-142.502,-0.147755,-0.0804253,1.21877,-2.25098,1.34521,-8.1886,0.332031,0.259766,0.123303,-0.162402
1732389401963,4.9151,-1.33407,-143.081,0.0964928,-0.154149,1.4601,8.38708,3.16077,-10.443,0.335938,0.253906,0.141014,-0.187673
1732389402025,5.1015,-1.27175,-143.112,-0.0314856,0.0730629,1.03281,-7.97217,-5.77002,-7.11877,0.341797,0.246094,0.139045,-0.186254
1732389402025,4.97595,-1.33102,-143.517,0.189983,-0.124413,1.33376,7.9613,2.83691,-9.47815,0.34668,0.238281,0.131676,-0.178023
1732389402087,4.88855,-1.39258,-143.477,-0.271332,-0.0822449,1.04768,1.72754,-0.912231,-0.875122,0.352539,0.230469,0.127564,-0.172758
1732389402149,4.80678,-1.41964,-143.66,0.0235825,-0.0326214,1.21462,3.02954,1.23523,-4.32788,0.356445,0.224609,0.1353,-0.184235
1732389402149,4.84531,-1.45578,-143.693,0.137867,-0.192953,0.934299,5.10864,1.47913,-4.45435,0.362305,0.217773,0.124948,-0.170548
1732389402210,4.84523,-1.64719,-143.818,0.0486507,-0.032547,0.803885,0.829956,0.990845,-4.07874,0.368164,0.211914,0.119166,-0.163238
1732389402210,4.73248,-1.58987,-143.856,-0.138972,-0.103931,1.32545,3.83923,1.7865,2.21753,0.37207,0.204102,0.118232,-0.161605
1732389402272,4.6608,-1.6326,-143.893,0.013092,0.0105133,0.906422,-0.53772,-4.02075,-6.18066,0.37793,0.198242,0.115753,-0.158782
1732389402335,4.61552,-1.68307,-143.927,-0.0754623,0.00401115,0.985977,4.58618,7.35303,-4.49646,0.381836,0.19043,0.119439,-0.163917
1732389402335,4.51164,-1.81569,-143.794,-0.16299,-0.0254774,0.80773,-3.70618,-1.57581,0.35498,0.385742,0.18457,0.123624,-0.169792
1732389402398,4.27539,-1.75434,-144.043,0.0289688,-0.0325193,1.04856,-3.82153,-0.861816,-0.83252,0.390625,0.179688,0.110131,-0.151486
1732389402467,4.19069,-1.86879,-143.944,-0.135018,-0.134753,1.10321,2.19275,-0.201294,1.16589,0.394531,0.173828,0.106467,-0.146022
1732389402467,4.22665,-1.91903,-143.955,0.0279636,-0.0944653,0.999601,2.62195,1.1106,-2.01245,0.398438,0.167969,0.106467,-0.146022
1732389402524,4.17618,-2.01341,-143.911,-0.0486441,-0.0701113,1.05262,2.10291,2.28601,-2.01782,0.402344,0.162109,0.102883,-0.141023
1732389402586,4.15166,-2.04288,-143.845,-0.148908,-0.149998,1.05878,-0.219849,1.91541,-1.5293,0.40625,0.15625,0.10543,-0.1444
1732389402586,4.24678,-2.03467,-143.862,-0.0456095,-0.0622959,0.953943,-0.146606,1.33325,1.25049,0.412109,0.150391,0.109551,-0.149955
1732389402647,4.1936,-2.07053,-143.836,-0.0652914,-0.0971775,1.22158,3.17505,2.18457,1.87402,0.416016,0.144531,0.105781,-0.144328
1732389402715,4.32773,-2.21783,-143.8,-0.0712309,0.00409126,0.855505,-4.50244,-1.97681,-5.20776,0.419922,0.139648,0.105948,-0.144774
1732389402715,4.35953,-2.0677,-143.746,-0.029562,-0.0316286,1.04236,1.31946,3.18457,2.90747,0.423828,0.133789,0.113031,-0.15404
1732389402772,4.41862,-2.14075,-143.674,-0.152584,-0.0530987,1.10836,-4.95203,1.91479,1.12793,0.428711,0.12793,0.119401,-0.162629
1732389402772,4.42935,-2.2385,-143.64,-0.0412712,-0.0235596,0.915413,-1.59644,-2.11499,5.43994,0.432617,0.120117,0.119886,-0.162489
1732389402834,4.27269,-2.29381,-143.527,-0.150468,-0.00638008,0.891785,-0.282715,-2.72253,4.12268,0.438477,0.114258,0.120825,-0.163156
1732389402896,4.33272,-2.19524,-143.464,-0.0859137,0.0504913,1.15686,-0.957397,0.0247803,2.8457,0.442383,0.106445,0.125529,-0.168925
1732389402896,4.23622,-2.20977,-143.391,0.0660248,-0.253974,1.01721,10.8757,1.09216,0,0.448242,0.101562,0.128242,-0.172036
1732389402963,4.27641,-2.25444,-143.282,-0.0535383,-0.0545549,1.07258,-0.35376,-1.34692,-0.513184,0.454102,0.0957031,0.127452,-0.170746
1732389403020,4.26189,-2.1926,-143.19,-0.0586023,-0.101063,1.13861,1.94885,-0.995117,3.26758,0.458008,0.0878906,0.130439,-0.174255
1732389403020,4.35497,-2.24379,-143.218,-0.0042181,0.0223541,0.94957,1.33203,-0.0144043,0,0.463867,0.0800781,0.139331,-0.185996
1732389403081,4.21866,-2.30139,-143.053,-0.144633,-0.0878572,0.886185,1.99463,0.501831,4.06531,0.46875,0.0722656,0.145455,-0.193279
1732389403149,4.18617,-2.28719,-142.994,-0.0577478,-0.0816526,1.0995,-1.08704,-1.07715,4.93311,0.474609,0.0644531,0.141127,-0.186654
1732389403149,4.13554,-2.38656,-142.868,-0.0727062,-0.124069,1.10587,-1.47729,1.53711,1.87927,0.480469,0.0595703,0.138002,-0.182193
1732389403207,4.01913,-2.37192,-142.819,0.034483,-0.101967,0.682981,6.88647,-3.06128,2.04248,0.484375,0.0517578,0.138105,-0.181783
1732389403272,4.00854,-2.30932,-142.736,-0.0550966,-0.0735788,0.771215,-0.331177,0.677368,2.80908,0.490234,0.0458984,0.120068,-0.15754
1732389403272,3.99745,-2.41488,-142.685,-0.0952072,-0.00719929,0.878071,-3.22058,0.326172,1.41138,0.496094,0.0380859,0.118514,-0.155429
1732389403332,3.89728,-2.42328,-142.616,-0.0453329,0.0267887,1.00746,-3.88745,1.90881,3.98706,0.5,0.0322266,0.121054,-0.158438
1732389403332,3.86044,-2.48654,-142.613,-0.0148811,-0.0317507,0.951874,-0.174561,-1.6062,0,0.505859,0.0244141,0.125904,-0.164749
1732389403398,3.74084,-2.47917,-142.588,-0.0622768,-0.12026,1.02323,3.12659,1.36523,-0.967896,0.508789,0.0195312,0.129469,-0.169397
1732389403459,3.72543,-2.58998,-142.633,-0.0707836,-0.0544815,1.24214,2.16956,0.151855,-2.11243,0.514648,0.0136719,0.117158,-0.153443
1732389403459,3.56223,-2.45629,-142.636,-0.0316563,-0.0355463,1.10949,5.82031,-3.7168,0.740479,0.518555,0.0078125,0.123173,-0.160963
1732389403519,3.50047,-2.43391,-142.588,0.0483723,-0.0753517,0.961241,1.60193,0.708862,-5.49976,0.524414,0.00195312,0.112342,-0.147066
1732389403575,3.39595,-2.36806,-142.594,-0.0432806,-0.124446,1.04366,5.13867,-1.01001,-1.14832,0.52832,-0.00488281,0.102805,-0.134436
1732389403575,3.40411,-2.41944,-142.624,0.0667496,-0.0251131,0.844343,-0.000732422,1.06592,-1.87329,0.532227,-0.0107422,0.0978298,-0.128244
